name,address,lat,lng,wifi,allHours,drive,hundred,morning,barista,birthday,playRand,adventure,parking
Γ싽ʓX,kCDys΋싽ʂQړPO[PT,43.0446098617,141.400065559,1,0,1,1,1,0,1,0,1,1
I[^EX,kCDysʐPڒnXI[^E,43.0610008653,141.355638957,1,0,0,0,1,0,0,0,0,0
kTQOX,kCDysk܏𐼂QOڂP[P,43.0635659529,141.325258838,0,0,1,1,1,0,0,0,0,1
ݓX,kCDysL敽ݓPOڂR[PQ,43.0306296872,141.368123528,1,1,1,1,1,0,1,0,1,1
VX,kCDyskk\O𐼂PSڂU[P,43.0876603306,141.327923798,1,0,1,1,1,0,0,1,0,1
эLёX,kCэLsPWR[QV[RU,42.9185158793,143.159844389,0,0,1,0,1,0,0,0,0,1
DyX,kCDys𐼂QڂP,43.058095667,141.355760232,1,0,0,1,1,0,0,0,1,0
CIHX,kCHSHj؂P[P[P,43.0087576776,144.405399765,1,0,0,0,0,0,0,0,0,1
ZCg[[Jh[X,kCDysL敟ZP,43.0201293462,141.403740313,0,0,0,1,0,0,0,0,0,1
CIΓX,kCΎshU[TP,42.8284944904,141.648937057,0,0,0,0,0,0,0,0,0,1
CIX,kCsQ[S[RQ,42.3451212448,141.026540064,0,0,0,0,0,0,0,0,0,1
Dy̓X,kCDysl𐼂SڂPU,43.0559152854,141.352959513,1,1,0,1,1,0,0,0,0,0
FX,kCDysOcPP,43.120617524,141.245451672,0,0,0,0,1,0,0,0,0,1
ϏqpZIX,kCϏqs쉈U[PU[U,42.6228707304,141.528197407,0,0,1,0,1,0,0,0,0,1
Y҂tNnX,kCHsYʂQ[U,43.014342485,144.323595016,0,0,0,0,0,0,0,0,0,1
HttNnX,kCHstU[P,42.9962664545,144.375324361,0,0,0,0,0,0,0,0,0,1
ϏqXeCX,kCϏqsOT[U,42.6546194037,141.614111799,0,0,0,0,0,0,0,0,0,1
gCAX,kCklsdlV[PS[P,41.8207885724,140.697305664,0,0,0,0,0,0,0,0,0,1
ԐrbOnEXX,kCΎsMZPڂT,43.1492235853,141.282671481,0,0,0,0,0,0,0,0,0,1
DyVX,kCDysV܏T,43.1147624022,141.271028264,0,0,1,0,1,0,0,0,0,1
QSPXX,kC͓SXؖʐPV[P[S,42.9707759213,143.207223488,0,0,1,0,1,0,1,0,1,1
kSXX,kCDyskl\𓌂WڂR[PV,43.1216278942,141.354422891,1,0,1,0,1,0,0,0,0,1
cCn[vX,kCs_OTڂP[PQ,43.7336275215,142.390823122,1,0,1,0,1,0,0,0,0,1
CI]ʓX,kC]ʎsKRT,43.0973203102,141.533411132,0,0,0,0,0,0,0,0,0,1
orrX,kCDysL搼Q,43.0214340906,141.383710698,0,0,1,0,1,0,0,0,0,1
ْbX,kCَsbQ[RX,41.811079158,140.767354243,0,0,1,0,1,0,0,0,0,1
_yX,kCs_ylT,43.7604436406,142.348038687,0,0,0,0,0,0,0,0,0,1
쐶X,kCَs쒬P[RS[PT,41.7816287099,140.781747354,0,0,0,0,0,0,0,0,0,1
X,kCDys搟ZSڂQ[P,43.0118349468,141.374174105,0,0,0,0,0,0,0,0,0,1
DyX,kCDysʋyOQڂP[V,43.0122574484,141.469531651,0,0,1,0,1,0,0,0,0,1
эLCg[[Jh[X,kCэLscWPO[P,42.8903128089,143.198580163,0,0,0,1,0,0,0,0,0,1
΃[V[X,kCDys΋hʂPWڂT[RT,43.0281235231,141.433854544,0,0,0,0,0,0,0,0,0,1
CIMX,kCMsz`PP[U,43.1844677849,141.0224716,1,0,0,0,0,0,0,0,0,1
{̑^[~irX,kCDys{̑PP[PV[PS,43.0891162451,141.276117679,0,0,0,0,0,0,0,0,0,1
RWxǖX,kCxǖsVxQ[T,43.3447778079,142.381143773,0,0,1,0,1,0,0,0,0,1
DyAsAX,kCDysk܏𐼂R,43.0676218731,141.351606707,1,0,0,0,1,0,0,0,0,0
Dy[rIX,kCDysL挎OPPڂP[PO,43.0275644337,141.40858497,0,0,1,0,0,0,0,0,0,1
RU˓X,kCDysc既˓VڂP[T,42.9782910198,141.46956065,0,0,1,0,1,0,0,0,0,1
ԓcCg[[Jh[X,kCDyskԓcRڂT[P,43.140021593,141.340584167,0,0,0,1,0,0,0,0,0,1
DyC^[X,kCDys΋ePڂPO[QQ,43.0733314047,141.409665151,0,1,1,0,1,0,0,0,0,1
̗X,kCDysk悠̗TڂQ,43.1573649937,141.398818267,0,0,0,0,0,0,0,0,0,1
DyhoVJX,kCDyskkZ𐼂TڂP[QQ,43.068357195,141.347179572,1,0,0,1,1,0,0,0,0,0
RXkX,kCksxP[P[U,43.7990121817,143.869887231,1,1,1,0,1,0,0,0,1,1
CIkX,kCkskiP[P[P,43.8082262586,143.875356952,1,0,0,1,0,0,0,0,0,1
RUΓX,kCΎsђR[PO[P,42.8231288426,141.643220406,1,0,1,0,1,0,0,0,0,1
CI[DyX,kCDysc敽OTڂR[P,42.9961442932,141.457562067,1,0,0,1,0,0,0,0,0,1
ʐFX,kCDysʋʐlUڂVOO[PQU,43.0539942937,141.468693919,0,0,0,1,0,0,0,0,0,1
CIHt[hR[gX,kCHSHj؂P[P[P,43.0092939479,144.403841535,1,0,0,1,0,0,0,0,0,1
CIDyX,kCDyskkO\𐼂SڂP[T,43.1070461267,141.339503215,0,0,0,0,1,0,0,0,0,1
RWDX,kCSʒDhPUS[P,42.9188558691,143.242542459,1,0,1,0,1,0,0,0,1,1
ԑX,kCԑsW[P[PW,43.9978094904,144.286384394,1,0,1,0,1,0,0,0,0,1
كCg[[Jh[X,kCَsP[R[P,41.8137468693,140.757758027,0,0,0,1,0,0,0,0,0,1
CIDyX,kCDyskO\𓌂PTڂP,43.1012611211,141.368862512,0,0,0,0,0,0,0,0,0,1
PQ〈X,kC〈s𓌂POڂQ[TT,43.2034113952,141.781253114,0,0,1,0,1,0,0,0,0,1
CIDyKX,kCDysk𐼂PSڂQW,43.0692124451,141.332465606,0,0,0,1,0,0,0,0,0,1
CI[DycX,kCDys擌cRڂP[PCI[DycQet[hR[g,43.0793277326,141.404602756,0,0,0,1,0,0,0,0,0,1
CI[쐼X,kCsΒQRڂQPUP[R,43.7938155518,142.327713975,0,0,0,1,0,0,0,0,0,1
WÓX,kCWÌSWÒ쒬R[POTEXqYPe,43.5354153684,144.977525098,0,0,0,1,0,0,0,0,1,1
DyAIX,kCDysk𓌂XڂQ[QO,43.0719530578,141.370033349,0,0,0,1,0,0,0,0,0,1
RUbX,kCbsU[PO[Q,42.8920900743,141.596666639,0,0,1,0,1,0,0,0,0,1
{OʓX,kCs{OPSڂP[QP,43.7579501272,142.37480276,0,0,1,0,1,0,0,0,0,1
CI[DyX,kCDys攭PQڂP[P,43.0963001135,141.276749963,0,0,0,1,0,0,0,0,0,1
oʎᑐX,kCoʎsᑐS[PQ[P,42.3704905019,141.055892006,0,0,1,0,1,0,0,0,0,1
RWHX,kCHsʂR[PQ[QU,43.0132612804,144.356989058,0,0,1,0,1,0,0,0,0,1
CI[ϏqX,kCϏqsR[P[QO,42.6566001026,141.642947648,0,0,0,1,0,0,0,0,0,1
RVɒBX,kCɒBsMQRU[P,42.4687210065,140.87832599,0,0,1,0,1,0,0,0,0,1
PQX,kCs̐PRQ[P,43.5692371752,141.932897655,0,0,1,0,1,0,0,0,0,1
CIX,kCscWO[PCIVbsOZ^[Qe,44.3397894542,142.452580249,0,0,0,1,0,0,0,0,0,1
ʕÓX,kCDys敚ÈTڂP[PO,43.0803388468,141.391436136,1,0,1,0,1,0,0,0,0,1
HL˒ʂX,kCHsRڂSVԂQO,42.9894568837,144.419935002,0,0,1,0,1,0,1,0,1,1
PQVDyX,kCDysʋʒSڂS[PQ,43.0381589545,141.46742222,0,1,1,1,1,0,0,0,0,1
]ʍVbsOZ^[X,kC]ʎs]ʂSQV[R,43.0999157783,141.548856768,0,0,1,0,1,0,0,0,0,1
〈a^EvUX,kC〈s܂ƈXڂPԂR,43.1882142392,141.735676316,0,0,1,0,1,0,0,0,0,1
SOtX,kCtsR[T[PV,45.3953560425,141.702694437,1,0,1,0,1,0,0,0,1,1
TُaX,kCَsa񒚖ڂSU[R,41.8153756979,140.73549525,0,1,1,0,1,0,0,0,0,1
ʒʂ쉺X,kCDys΋쉺܏S[Q[P,43.0530106771,141.44785174,1,0,1,0,1,0,0,0,0,1
QRTÓX,kCSVЂÓLQ[P[P,42.3423629979,142.356149003,0,0,1,0,1,0,0,1,0,1
QVT嗈X,kCDys擌嗈SڂV[P,43.0940006525,141.429588162,1,0,1,0,1,0,0,0,0,1
QROX,kCDys擡OSڂP[P,42.9609077684,141.304764988,1,0,1,0,1,0,1,0,1,1
эLTX,kCэLs܏\ڂPP[P,42.9111380809,143.198557746,0,0,1,0,1,1,0,0,0,1
RUϏqX,kCϏqsVJR[P[P,42.661719216,141.65179292,0,1,1,1,1,1,1,1,1,1
VՎX,kCDyskVՎQV[P[P,43.1081711186,141.317878485,0,0,1,0,1,1,0,0,0,1
RXiRX,kCsiRQW[P[QV,43.7973726891,142.41189401,1,1,1,1,1,1,0,0,0,1
uX,kCDys搯uRP[P[RO,43.1381348483,141.220227397,1,0,1,1,1,0,1,1,1,1
ُX,kCَsPP[PT,41.7717011505,140.732826269,1,0,1,1,1,0,0,0,0,1
ruʐcX,kCDysc^hSV[P,42.9927151808,141.437934088,0,0,1,1,1,0,1,1,1,1
VۂJevX,kCDysʋʒT[V,43.0375525488,141.473158671,1,0,0,1,0,0,0,0,0,1
OOcX,XOOs厚{P[Q[S,40.6118367107,140.482590014,1,0,1,0,1,0,0,0,0,1
XoCpXX,XXs͂܂ȂQ[P[QW,40.8268759439,140.795182168,1,0,1,0,1,0,0,0,0,1
S\acX,X\acs厚˓PSS[PRR,40.6440901495,141.199473986,0,0,1,0,1,0,0,0,0,1
POQOOX,XOOs厚cT[Q[W,40.5965740114,140.507666888,1,1,1,0,1,0,0,0,0,1
XoCpXX,XXsODQ[Q[P,40.8304299828,140.705376737,1,0,1,0,1,0,0,0,0,1
CI[cX,XkS点약SO[P,40.6018894208,141.417582339,0,0,0,1,0,0,0,0,0,1
˃sAhDX,XˎsقS[V[PPQrbsAhD,40.5278592757,141.497361146,0,0,0,1,0,0,0,0,0,1
XTh[X,XXstR[T[U,40.8045837562,140.755116963,0,0,0,0,0,0,0,0,0,1
OX,XOshQ[RP[PSS,40.6740800906,141.365839193,1,0,1,1,1,0,1,1,1,1
XCg[[Jh[X,XXslcP[PS[P,40.800686826,140.749515731,0,0,0,1,0,0,0,0,0,1
OOX,XOOs铌kR[PO[P,40.6069829787,140.496161546,0,0,0,0,0,0,0,0,0,1
ނX,XނsQ[QX,41.2878702796,141.184913711,1,0,1,0,1,0,0,1,0,1
CI[锐X,XsSP,40.801236331,140.417596209,1,0,0,0,0,0,0,0,0,1
\acCIX[p[Z^[X,X\acs厚⎚ZRPUU[P,40.6029126602,141.257420175,0,0,0,0,0,0,0,0,0,1
XT[hX,XXs΂R[X[Q,40.8079207943,140.753019753,1,0,0,1,0,0,0,0,1,1
˓މƓX,XˎsމƂP[Q[U,40.5042248617,141.506716022,1,0,1,0,1,0,0,0,1,1
POQΓX,XΎs厚쎚RV[P,40.6320475064,140.596857277,1,0,1,0,1,0,0,0,1,1
STSːX,Xˎs厚c㎚sPR[P,40.51112555,141.44789727,0,0,1,0,1,0,0,0,0,1
܏쌴X,X܏쌴sR[QOW,40.7953338571,140.450047754,1,0,1,0,1,0,0,1,1,1
ˏ鉺X,Xˎs鉺S[V[PT,40.5199591866,141.491252111,1,1,1,1,1,1,0,0,0,1
OO咬X,XOOs厚咬P[PV[V,40.5945876918,140.483886911,1,0,1,1,1,1,0,0,0,1
SX,茧sÎucP[P[QT,39.6587427254,141.161471696,1,0,1,0,1,0,0,0,1,1
SԊX,茧Ԋs㏬MnSP[P,39.3980523812,141.123010716,1,0,1,0,1,0,0,0,1,1
S֓X,茧֎sRڎ΂VO[P,38.9368852193,141.118556695,1,0,1,0,1,0,0,0,1,1
SX,茧Bs捲q͎OcWO[P,39.1462770459,141.150013651,1,0,1,0,1,0,0,0,0,1
CIOX,茧BsOcQ[QQ,39.0499582652,141.131198102,1,0,1,0,0,0,0,0,0,1
Ѓ}bNXo[X,茧gSВV[SPR,39.6116590721,141.152006583,0,0,0,0,0,0,0,0,0,1
ScX,茧scS[PV[QO,39.7227702196,141.134292784,1,1,1,0,1,0,0,0,1,1
tFUX,茧swOʂP[SSwrtFU{قaPeO^E,39.702659856,141.136041152,1,0,0,0,0,0,0,0,0,0
RX,茧sRS[SU[PT,39.7333683863,141.114884513,1,0,0,0,1,0,0,0,0,1
CI[X,茧sOS[V[PCIQe,39.7113499377,141.099090915,0,0,0,1,0,0,0,0,0,1
CI[X,茧s{{V[P[P,39.6835201924,141.128006722,0,0,0,1,0,0,0,0,0,1
POU{ÓX,茧{Îs{P[P[RW,39.6388443504,141.946152245,1,0,1,0,1,0,0,0,1,1
POVkX,茧kskSPWnPX[Q,39.2936683866,141.101610581,1,1,1,0,1,0,0,0,1,1
oCpX{{X,茧s{{S[SS[PT,39.685534167,141.129469546,1,0,1,1,1,1,0,0,1,1
tʂX,{錧stԒQ[T[P,38.2593498496,140.872183934,1,1,0,0,1,0,0,0,0,0
䍕X,{錧s攪P[P[P,38.3096137209,140.880308642,1,0,1,1,1,0,0,1,1,1
䒆ʂX,{錧st撆Q[Q[QX,38.2613433763,140.877181185,1,1,0,1,1,0,0,0,1,0
SX,{錧sіy@WQ[P,38.1561858268,140.887651874,1,0,1,1,1,0,0,0,1,1
sX,{錧ss⎚XV[P,38.3194600844,140.889874015,1,0,1,0,1,0,0,0,0,1
򒆎RX,{錧s쒆RP[SQ[T,38.2971583362,140.827361601,1,0,1,0,1,1,0,1,0,1
SΓX,{錧ΎsSUX,37.9971809152,140.612440869,1,0,1,0,1,0,0,0,0,1
STΊX,{錧ΊseԒJnSU[P,38.430883156,141.261964544,1,0,1,0,1,0,0,0,0,1
͌X,{錧ēcS͌VQV[PS,38.0614515608,140.737499842,1,0,1,0,1,0,0,0,0,1
c}UX,{錧s撆c犠cPX[P,38.1968244767,140.89744579,1,0,0,0,0,0,0,0,0,1
CI䒆RX,{錧s쒆RP[RT[SOCI䒆RXRe,38.2979810153,140.827241017,1,0,0,1,0,0,0,0,0,1
UE[䒷X,{錧s撷V[QO[R,38.2260196597,140.876485681,0,0,0,1,0,0,0,0,0,1
CIÐX,{錧sÐ숮Q[Q[P,38.5668516505,140.972730627,0,0,0,0,0,0,0,0,0,1
SÐX,{錧sÐ鐼P[PP[QT,38.5750332652,140.946605563,1,0,1,0,1,0,0,0,0,1
wX,{錧s{։Q[P[QT,38.2608030741,140.883715088,1,1,0,0,1,0,0,0,0,0
{XX,{錧{S{{VUS[P,38.3311018704,140.977817228,0,0,1,0,1,0,0,0,0,1
UErbOēcX,{錧ēcSēcRS[P,38.0625536494,140.794740945,0,0,0,0,0,0,0,0,0,1
jR[vX,{錧jSjGĖkPOO,38.0424247307,140.876378152,0,0,0,0,0,0,0,0,0,1
CI[{X,{錧{S{{VcOQQ,38.3266714016,140.972785096,0,0,0,1,0,0,0,0,0,1
S䏼XX,{錧s揼X֏RQ[P,38.3046844817,140.915313894,1,0,1,0,1,0,0,1,0,1
ԒlړX,{錧stԒS[S[RR[Qe,38.2639101123,140.870691349,0,1,0,1,1,0,0,0,0,0
ag[Nxj}X,{錧SagP[Q[P,38.4368468748,140.893186788,0,0,0,0,0,0,0,0,0,1
cX,{錧scQ[V[QX,38.2135903069,140.878020853,1,1,1,0,1,0,1,0,1,1
STX,{錧}s̓R[P[P,38.3315552537,141.038079485,1,0,1,0,1,0,0,0,0,1
[Nxj}X,{錧s܂Q[R[UV,38.1077402426,140.856870966,0,0,0,0,0,0,0,0,0,1
g[Nxj}X,{錧stgR[P[QP,38.2858723484,140.815421501,0,0,0,0,0,0,0,0,0,1
CI[xJX,{錧xJs吴P[RR[P,38.3640905894,140.874730168,0,0,0,1,0,0,0,0,0,1
Rcb惈[N^EX,{錧sRccOPWO,38.216930954,140.837252563,1,0,0,0,0,0,0,0,1,1
Vc[N^EX,{錧s{VcR[P[T,38.2763103407,140.937012517,0,0,0,0,0,0,0,0,0,1
s⃈[N^EX,{錧ss⎚POO[X,38.3152849117,140.905442306,0,0,0,0,0,0,0,0,0,1
X,{錧oĎsQ[PQ[PR,38.6856953002,141.18620191,1,0,1,0,1,0,0,0,1,1
CI[X,{錧sm̂TڂRԒn̂P,38.1639582333,140.896158274,1,0,0,0,0,0,0,0,0,1
CI[ΊX,{錧ΊsS[POS,38.4487198666,141.267397387,0,0,0,1,0,0,0,0,0,1
Z̖ړX,{錧sыZ̖ڌPU[P,38.2505976542,140.933535695,1,0,1,0,1,0,0,0,0,1
䒷X,{錧s悠ƒS[Q[P,38.2258702879,140.887895255,1,1,1,1,1,0,1,0,1,1
Ί֓cX,{錧ΊsbݖP[Q[W,38.446768287,141.272100407,1,0,1,1,1,0,0,0,0,1
SX,{錧sxk|WT[T,38.1223362823,140.874096017,1,1,1,0,1,0,0,0,0,1
ΑX,{錧xJsΑU[P[RU,38.3480776716,140.892054976,1,0,1,1,1,0,0,0,0,1
䉫X,{錧sы扫Q[T[WO,38.2316607651,140.90811462,1,1,1,1,1,1,0,1,1,1
X,{錧sOQ[R[PQ,38.2860389907,141.005151433,1,0,1,1,1,0,0,1,0,1
SÐrJX,{錧sÐrJVRQ[P,38.6031015236,140.979093893,1,0,1,0,1,1,0,0,0,1
SWq[N^EX,{錧st㈤qV{OQO[P,38.2677628498,140.760791816,1,0,1,0,1,1,0,0,1,1
HcVX,HcHcs򒆉Q[R[Q,39.7335243957,140.100922326,1,0,1,1,1,0,0,1,0,1
HcmcX,HcHcsmcΒT[QO,39.6885506561,140.123723073,1,0,1,0,1,0,0,0,1,1
POT{X,HcR{sqUQ[U,39.3866319706,140.035557688,1,0,1,0,1,0,0,0,0,1
{}bNXo[X,HcR{sVQTV,39.3867336084,140.063420482,0,0,0,0,0,0,0,0,0,1
CI[HcX,HcHcs䏊ncP[P[P,39.6638982713,140.160801263,0,0,0,1,0,0,0,0,0,1
VٓX,HcَsЎRQ[S[T,40.2738199447,140.538577812,1,0,1,0,1,0,0,0,0,1
PRX,HcsOORQ[P,39.308731203,140.556912504,1,1,1,0,1,0,1,0,0,1
CIX[p[Z^[X,HcswC玚cS[P,39.2957817663,140.552822389,0,0,0,1,0,0,0,0,0,1
CIX,Hcsk쎚ѓcPPW,39.5513806244,140.551863463,0,0,0,1,0,0,0,0,0,1
HcLʓX,HcHcsLʒ~ST[P,39.7264357754,140.147460744,1,0,1,0,1,0,0,0,0,1
}bNXoX,HcHcsS[R[PW,39.6957790438,140.098018621,1,0,0,0,0,0,0,0,0,1
O}[gOX,HcHcsO쏬JnQT,39.7517157063,140.095772995,0,0,0,0,0,0,0,0,0,1
CI[ȓX,HcsaؗPVV,39.4380165735,140.509523384,1,0,0,1,0,0,0,0,0,1
V\X,Hc\sPPU,40.1845139773,140.051499437,1,0,1,0,1,0,0,0,0,1
VHcѓX,HcHcsѓR[U[TT,39.7842504033,140.065198003,1,0,1,0,1,1,0,0,0,1
R`悢X,R`R`s悢P[P[P,38.2539033419,140.309937267,0,0,1,1,1,0,0,0,0,1
đX,R`đsrT[V[PO,37.9239862652,140.116226212,0,0,1,0,1,0,0,0,0,1
PRVX,R`Vsv{R[V[TO,38.3734093633,140.382858957,0,0,1,0,1,0,0,0,0,1
CIcX,R`csْPQO[P,38.8926815599,139.852149306,1,0,1,0,1,0,0,0,0,1
CIR`kX,R`R`snQ[PQ[PX,38.2832574947,140.331165165,0,0,0,1,0,0,0,0,0,1
CIX,R`sډwOR[V[PT,38.4273190815,140.387783785,0,0,0,1,0,0,0,0,0,1
đ򃈁[Nxj}X,R`đswOR[P[WW,37.9124561881,140.125265114,0,0,0,0,0,0,0,0,0,1
CI[R`X,R`R`s{R[V[W,38.227278242,140.305410838,0,0,0,0,0,0,0,0,0,1
CI[OX,R`cSO쒬qacɂPQW,38.8158630955,139.834412829,1,0,0,1,0,0,0,0,0,1
򃈁[Nxj}X,R`R`s򐼂P[U[PV,38.2093578711,140.316899553,0,0,0,0,0,0,0,0,0,1
V[Nxj}X,R`VsܓPROT[T,38.7705468446,140.308797305,0,0,0,0,0,0,0,0,0,1
߉hylnX,R`߉sV֒V[VP,38.7356481335,139.8186216,1,0,1,0,1,0,1,0,0,1
QWUR`SCX,R`R`sSCQ[QO[RP,38.2348048269,140.332874483,1,0,1,0,1,0,0,0,0,1
c҂R[vX,R`cs򒬂P[PT,38.9349580959,139.845942024,1,0,1,0,1,0,0,0,1,1
͍]X,R`͍]s厚͍]ԓcVP[P,38.3735093627,140.287068157,0,0,1,0,1,0,0,1,0,1
PPQ߉X,R`߉sɐWS[P,38.7144369678,139.846462911,1,0,1,0,1,0,0,0,1,1
R[N^EX,R`RsΎ~m؂VWO[P,38.1511585196,140.288555265,1,0,1,0,1,0,0,0,0,1
CI[VX,R`VsF^EkS[P[P,38.342695123,140.362728813,0,0,0,1,0,0,0,0,0,1
SRؓX,SRs؂P[T[PX,37.4085576956,140.366016034,1,0,1,1,1,0,0,1,0,1
킫{X,킫s։DÓQWX[V,36.9873039627,140.869179048,1,1,1,0,1,0,0,0,0,1
PPTؓcX,sؓcP[SP,37.7399160943,140.447124437,1,0,1,0,1,0,0,1,0,1
wVbsOZ^[X,shP[P,37.7538267696,140.458748911,0,0,0,0,1,0,0,0,0,1
ÎᏼX,Îᏼs򒬂U[QT,37.5051351883,139.941186005,1,0,1,0,1,0,0,0,0,1
݃R[vX,sXV,37.7720469618,140.441686507,0,0,0,0,0,0,0,0,0,1
CIX,sڎrcTO[PV,37.7881108607,140.458166295,0,0,0,0,0,0,0,0,0,1
CI^ESRX,SRsؒQ[WW,37.3891996883,140.387443381,0,0,0,0,1,0,0,0,0,1
R[vX,{s䎚cP[P,37.6042417872,140.459978617,0,0,0,0,0,0,0,0,0,1
r䃈[Nxj}X,SRsϒr䎚P,37.3686761679,140.356557232,0,0,0,0,0,0,0,0,0,1
ÃAsIX,ÎᏼsC^[PPU,37.5202219271,139.916535533,1,0,0,0,0,0,0,0,0,1
ɒB[Nxj}X,ɒBsO쌴TT,37.8208390315,140.506536175,0,0,0,0,0,0,0,0,0,1
SRxcJCYz[X,SRsxccQW[P,37.4230533098,140.367947445,1,0,0,0,0,0,0,0,0,1
SRVʂX,SRsyZP[TV,37.3994300495,140.333649787,1,0,1,0,1,0,0,0,0,1
CI͐X,͌S厚cq≺PP[P,37.1211919815,140.177694361,0,0,0,1,0,0,0,0,0,1
UE[SRX,SRs҂P[P[TU,37.3983656491,140.370188072,0,0,0,1,0,0,0,0,0,1
c[Nxj}X,ÎᏼsV_QQ[PQ,37.4800170537,139.934338263,0,0,0,1,0,0,0,0,0,1
Cg[[Jh[X,킫sU[U[Q,37.0575801116,140.897800723,0,0,0,1,0,0,0,0,0,1
SRtFX^X,SRsacԒn,37.4440672616,140.376829355,0,0,0,0,0,0,0,0,0,1
SRwX,SRswOP[Q,37.3972635025,140.388027139,0,0,0,0,1,0,0,0,0,0
CI^E{X,{sÉ͂POT,37.2986708478,140.385771428,1,0,0,1,0,0,0,0,0,1
ÎᏼAs^X,Îᏼs쒬X[PO,37.4839121578,139.904474572,1,0,0,0,0,0,0,0,0,1
킫lX,킫slPX[Q,36.9601666393,140.903671194,1,0,1,0,1,0,0,0,0,1
SRwVbsOZ^[X,SRs͌S[UP,37.401471849,140.39572601,1,0,1,0,1,0,0,0,0,1
S{X,{s厚XhqWcPR[P,37.3113185647,140.366054788,1,0,1,0,1,0,0,0,1,1
S앟X,s⎚mSX[P,37.7264801374,140.46645615,1,0,1,0,1,0,0,0,0,1
Un˃mX,nsqcPRT[P,37.8007984903,140.928421222,0,0,1,0,1,0,0,0,0,1
SRϓX,SRsϒr䎚˗P[V,37.3659368457,140.369430411,1,0,1,0,1,0,0,0,0,1
킫AcX,킫sAcPP[Q,36.9221081969,140.786305925,1,0,1,0,1,0,0,0,0,1
QWXV͓X,͎sV͂Q[PQP,37.1225131381,140.194650899,0,1,1,1,1,0,0,0,1,1
쑽X,쑽s]qSPWP[P,37.6477178799,139.880138603,1,0,1,1,1,0,0,0,1,1
S]X,s]PT[P,37.7691462124,140.481513191,1,1,1,0,1,1,0,0,0,1
킫X,킫sFlcV[P,36.9995917739,140.909791433,1,0,1,0,1,0,0,0,1,1
^VX,錧yYs^VQO[RU,36.0894597869,140.207640688,1,1,1,1,1,0,1,1,1,1
ΊwX,錧Ύs莚ʊQXR[P,36.0763875918,140.103635067,1,0,1,1,1,0,0,1,0,1
ˉwX,錧ˎsQ[W[Q,36.3669086073,140.476455392,1,0,1,1,1,0,0,0,0,1
vX,錧vsqWOU[P,35.9919718614,140.145171967,1,1,1,1,1,0,0,1,0,1
É͓X,錧É͎s厚PJQUO,36.2048434986,139.741430372,0,0,1,1,1,0,0,0,0,1
X,錧s򒬂S[P[PU,36.5404182846,140.621768984,1,1,1,0,1,0,0,0,1,1
UΉX,錧Ήs勴QVTQ[Q,36.1945340064,140.297996416,1,0,1,1,1,0,0,0,0,1
߉ϒX,錧߉ώs|mR[U[T,36.4481615075,140.501940611,1,0,1,0,1,0,0,0,0,1
JWCt{cX,錧JsuR[W,35.9384902843,139.987636155,0,0,1,1,1,0,0,0,0,1
TOٓX,錧}sʌ˂POPW,36.2951469979,139.940289359,1,0,1,0,1,0,0,0,0,1
TOːԒ˓X,錧ˎsԒ˂Q[QOOT[PO,36.3868996893,140.41663852,1,0,1,0,1,0,0,0,0,1
TOoCpX˓X,錧ˎsgQOVV[T,36.3505882923,140.438517917,1,0,1,0,1,0,0,0,0,1
CoCpXX,錧푍sCSTUU,36.018287894,139.996021336,1,0,1,0,1,0,0,0,1,1
TPX,錧s{QWRV[P,35.9510727326,140.56714516,0,0,1,0,1,0,0,0,0,1
TO␣X,錧ŝP[UT,36.3650372107,140.10571426,1,0,1,0,1,0,0,0,0,1
CICX,錧߉όSCMΐwS[P[P,36.4636543369,140.566893041,1,0,0,1,0,0,0,0,0,1
ZC~X,錧ssRQWW[QX,36.0180802607,140.498882306,0,0,0,0,0,0,0,0,0,1
߉ϒz[}bNX,錧߉ώsJPUPS,36.4283818896,140.515092279,1,0,0,0,0,0,0,0,0,1
TPC^[X,錧ˎs蒬WVU[P,36.3331162377,140.553772759,0,1,1,0,1,0,0,0,1,1
ЂȂaʂX,錧ЂȂsΐ쎚{POPT[P,36.3954484568,140.537369008,1,0,1,0,1,0,0,0,1,1
vJX~X,錧vs_JU[P[R,35.9686641109,140.151665709,0,0,0,0,0,0,0,0,0,1
TO}ԓX,錧}ԎsԍS[S,36.393642954,140.250665975,1,0,1,0,1,0,0,0,0,1
j[^EX,錧PsS[X[Q,35.9310128903,140.175436909,1,1,1,0,1,0,0,1,0,1
yYcX,錧yYscP[PRPQ,36.0843693307,140.190242377,0,0,1,0,1,0,0,1,0,1
헤cX,錧헤csQXTS,36.5426335406,140.530366941,0,0,0,0,0,0,0,0,0,1
UcX,錧݂sgPXSR[PS,36.1314111057,140.225929059,1,0,1,0,1,0,0,0,0,1
SOWΑ]X,錧Ύs}P[P[Q,36.1378764516,140.082303225,1,0,1,1,1,0,0,0,0,1
TOoCpXX,錧s菼U[P[Q,36.2869432416,139.870227075,1,1,1,0,1,0,0,0,0,1
kTvX,錧PsĂT[P,35.9324078899,140.160772817,0,0,0,1,0,0,0,0,0,1
[xCVAX,錧sjPOUX,36.7285090337,140.71570094,0,0,0,1,0,0,0,0,0,1
JX~X,錧~SQ[V[QS,36.038887364,140.215084929,0,0,0,0,0,0,0,0,0,1
PQTOaX,錧É͎sPQSP[P,36.201180574,139.81296302,1,0,1,0,1,0,0,0,0,1
FXNGAX,錧}ԎsZgPRUS[P,36.3200498178,140.328399957,1,0,1,0,1,0,0,0,0,1
PQTX,錧~SQ[RO[R,36.0413274937,140.209566963,1,0,1,0,1,0,0,0,0,1
UaX,錧ЂȂsaQRXO[P,36.4551537416,140.530860077,1,0,1,0,1,0,0,0,0,1
PPW˒͓X,錧ˎs͓QUQR[Q,36.4052510631,140.461013413,1,0,1,0,1,0,0,0,1,1
UˏZgX,錧ˎsZgXU[P,36.335845683,140.474703244,1,0,1,0,1,0,0,0,0,1
piX,錧~sPSXT,35.9182431387,140.487928768,1,0,0,0,0,0,0,0,0,1
QXSVJX,錧Js䏊PuP[Q[Q,35.9656777035,139.985098313,1,0,1,0,1,0,0,0,0,1
QSTЂȂX,錧ЂȂsnnvۂTSV[P,36.4013353885,140.580881452,1,0,1,0,1,0,0,0,1,1
PQSX,錧s厚{RPU[P,35.9603973577,140.642089003,1,1,1,0,1,0,0,1,0,1
TOˑ˓X,錧ˎs˒PTRX[P,36.3863199389,140.393161652,1,0,1,1,1,0,0,0,0,1
aƂ肹X,錧É͎sQOOW[P,36.1674226354,139.768382943,0,0,0,0,0,0,0,0,0,1
QXSΉX,錧푍s厚VΉPUOR[P,36.1093622533,139.983138126,1,0,1,0,1,0,0,0,0,1
щwOX,錧PsђUSU,35.9300219975,140.13848925,0,0,0,0,1,0,0,0,0,0
X,錧ⓌsRSTQ[P,36.0506988427,139.889412136,1,0,1,0,1,0,0,0,0,1
UÓX,錧ksÒQUWT[P,36.8380749012,140.783849535,1,0,1,0,1,0,0,0,0,1
QXSو{X,錧}s{PTRR[P,36.2953258487,139.97018652,1,1,1,0,1,0,0,0,0,1
PQSgX,錧_sgWTPT[P,35.7488107849,140.822354848,1,0,1,0,1,0,0,0,0,1
]ˍpvX,錧~s]ˍbSWRU,35.9592488228,140.3161416,0,0,0,0,0,0,0,0,0,1
yYVX,錧yYsÂR[T[X,36.0657206737,140.18267407,1,0,1,0,1,0,0,0,1,1
UX,錧sJQOW[P,35.9195076476,140.108566664,1,0,1,0,1,0,0,0,0,1
VE҂X,錧yYs唨PUPP,36.1195815981,140.17475751,1,0,0,0,0,0,0,0,0,1
ؒÓX,錧scP[W[T,36.630140695,140.684152045,1,0,1,0,1,0,0,1,0,1
LYJX~X,錧sKT[R[PV,36.6657915718,140.691179075,0,0,0,0,0,0,0,0,0,1
JCYz[X,錧sOPQVO[QJCYz[X,36.491532219,140.604173961,0,0,0,1,0,0,0,0,0,1
c[[Nxj}X,錧݂sgtQURR[V,36.1264640062,140.230299727,1,0,0,0,0,0,0,0,0,1
Ⓦ[N^EX,錧ⓌsӓcPPOS[P,36.0373359386,139.890519257,0,0,0,0,0,0,0,0,0,1
CI[˓X,錧ˎsQ[P,36.3754071866,140.359433871,0,0,0,1,0,0,0,0,0,1
k钆X,錧ksQQTX,36.7815621592,140.734791454,1,0,1,0,1,0,0,0,1,1
ЂȂX,錧ЂȂsPPRX[P,36.4207598025,140.538908079,1,1,1,0,1,0,0,0,0,1
CI^E˓X,錧S钬RSWO[POP,36.3106978894,140.441624894,1,0,0,0,0,0,0,0,0,1
CI^EJX,錧JsSPuR[QSX[P,35.9451563013,139.991415006,1,0,0,1,0,0,0,0,0,1
PPW헤{X,錧헤{sΑPWUR[P,36.5407617999,140.410187811,1,1,1,0,1,0,1,0,1,1
C[AXΓX,錧ΎswT[PX,36.0861262429,140.084300753,0,0,0,1,0,0,0,0,0,1
CI[yYX,錧yYs㍂ÂRUVCIyYrbRKt[hR[g,36.0803517465,140.180721408,0,0,0,1,0,0,0,0,0,1
TOˑHX,錧ˎsHQ[U[RR,36.3808562086,140.456850634,1,1,1,0,1,0,0,0,0,1
iqˉwX,錧ˎs{P[P[P,36.3709603681,140.476343564,1,0,0,1,1,0,0,0,1,0
r쉫X,錧yYsr쉫Q[PW[T,36.026772221,140.169922319,1,1,1,1,1,0,0,0,0,1
X,錧S厚ˎOQTS,36.122711086,139.801171981,0,0,1,0,1,0,0,0,0,1
ΌwX,錧ΎswS[P[P,36.0855171674,140.074922687,1,0,1,1,1,0,0,0,0,1
SÉ͓X,錧É͎sÉ͂WOQ[P,36.1880850327,139.71765254,0,0,1,0,1,0,0,0,0,1
X,錧PsRTVQ[P,35.9099580037,140.184311466,1,0,1,0,1,1,0,0,1,1
PQTȓX,錧Ȏs厚ȕPOV,36.1802438371,139.968505053,1,0,1,1,1,1,0,0,0,1
RTSΏ㉡X,錧Ύs㉡QPUU[P,36.0396003883,140.084387389,1,0,1,1,1,0,0,0,0,1
CI[ΓX,錧ΎsUU[P,36.0340440084,140.133105701,0,0,0,1,0,0,0,0,0,0
_X,錧_sPUUU[P,35.9016174044,140.635921969,1,1,1,1,1,0,1,1,1,1
UX,錧sR[S[U,36.5880463418,140.645960438,1,1,1,1,1,0,1,0,1,1
As^X,Ȗ،sqQST,36.3207358042,139.449978919,0,0,0,0,1,0,0,0,0,1
Ȗ؃oCpXX,Ȗ،Ȗ؎sQ[U[RS,36.3742007901,139.715237275,1,0,1,0,1,0,0,0,0,1
TORX,Ȗ،RsR[P[P,36.2999830516,139.8052682,1,1,1,0,1,0,0,0,0,1
W]X,Ȗ،sLTVR[P,36.5599360494,139.766083214,0,1,1,1,1,0,1,1,1,1
ߐ{X,Ȗ،ߐ{s싽Q[POU[QV,36.8953654256,139.982776463,0,0,1,1,1,0,0,1,1,1
SƓX,Ȗ،sK̗S[TP[P,36.6807150881,139.959118211,0,1,1,0,1,0,0,0,0,1
XFs{X,Ȗ،Fs{s얓QOU[RQT,36.592914245,139.918453194,1,1,1,0,1,0,0,0,0,1
S΋X,Ȗ،sQ[P[PS,36.4438649917,139.864369648,1,0,1,0,1,0,0,0,0,1
SOW^X,Ȗ،^scUOR[PP,36.4368809634,139.962322666,1,1,1,0,1,0,0,0,0,1
TOMX,Ȗ،Ȗ؎sMÂQRUP[Q,36.3148572597,139.664255216,0,0,1,0,1,0,0,0,0,1
cVbsOvUX,Ȗ،Fs{s򒬂QRV,36.5741169976,139.900312209,0,0,0,1,0,0,0,0,0,1
{Ƃ肹X,Ȗ،Fs{s{QPQR[P,36.6020976607,139.939286852,0,0,0,0,0,0,0,0,0,1
ldf`hELz[eX,Ȗ،ߐ{sޖؒR[T,36.9732566967,140.048973526,1,0,1,0,1,0,0,0,0,1
Fs{X,Ȗ،Fs{swOʂR[Q,36.5586869971,139.897045917,1,0,0,0,1,0,0,0,0,0
؏orrX,Ȗ،sSؒFSXRS,36.2359698606,139.727156143,0,0,1,0,1,0,0,0,0,1
TOX,Ȗ،saRSX[P,36.3068314077,139.465255956,1,1,1,0,1,0,0,0,0,1
SRX,Ȗ،Rs厚_JROW[Q,36.2999434332,139.788477694,0,0,1,0,1,0,0,0,0,1
C^[ʂX,Ȗ،Fs{sߓcƃmPTPQ[QS,36.5490917707,139.848916837,1,0,1,0,1,0,0,0,0,1
soCpXX,Ȗ،ssPOUW[P,36.7251137433,139.699909451,1,0,1,0,1,0,0,0,0,1
CIsX,Ȗ،sLcVX[P,36.7304326975,139.704176081,0,0,0,0,0,0,0,0,0,1
傩܂X,Ȗ،s_P[P[T,36.3942387884,139.858001989,0,0,0,0,0,0,0,0,0,1
TOX,Ȗ،sHcԓcUOT[P,36.2903890911,139.546992948,1,0,1,0,1,0,0,0,0,1
SX,Ȗ،sS[QR[U,36.3781201674,139.841446856,0,0,1,0,1,0,0,0,0,1
RtX,Ȗ،RskR[QO[R,36.3274387572,139.823205804,0,0,1,0,1,0,0,0,1,1
Fs{ˍՓX,Ȗ،Fs{sˍՒRRT[P,36.588643808,139.86453661,1,1,1,1,1,0,0,1,1,1
IR[X,Ȗ،sUOO[P,36.3259564407,139.433774541,0,0,0,0,0,0,0,0,0,1
S{X,Ȗ،Fs{s{̓S[QQW[P,36.4991103739,139.874348145,1,0,1,0,1,0,0,0,0,1
Έ䂽X,Ȗ،Fs{sΈ䒬QWOO[TV,36.5471549826,139.927700163,0,0,0,0,0,0,0,0,0,1
CI[VssX,Ȗ،sPRQS[P,36.2993035664,139.606198336,0,0,0,1,0,0,0,0,0,1
Fs{C^[p[NcX,Ȗ،Fs{sC^[p[NU[P[P,36.4899514882,139.907475691,1,0,0,1,0,0,0,0,0,1
Fs{x[X,Ȗ،Fs{szU[Q[P,36.5562895305,139.928843014,0,0,0,1,0,0,0,0,0,1
OC^[`FWX,Ȗ،Fs{sJPQ[P,36.4808338524,139.905247097,1,1,1,0,1,0,0,0,0,1
ʂFs{X,Ȗ،Fs{sʐP[PR[PP,36.5498278373,139.890926259,1,1,1,0,1,0,0,0,0,1
܂䂤n[FXgEH[,Ȗ،RsPSVT,36.3352574269,139.806922706,0,0,0,0,0,0,0,0,0,1
AVR^EX,Ȗ،s匎R[Q,36.3362377997,139.476058262,0,0,1,0,1,0,0,0,1,1
X,Ȗ،sVPU[P,36.3139559499,139.591533989,1,0,1,0,1,0,0,0,0,1
sʂX,Ȗ،sxcPRV,36.7990734872,139.926993158,1,0,1,0,1,0,0,0,1,1
ώoCpXX,Ȗ،JS򒬌zP[PQ[R,36.6195584677,139.990403398,1,0,1,0,1,0,0,0,1,1
ȖؓX,Ȗ،Ȗ؎sQ[QS[PT,36.3939383648,139.749398804,1,0,1,1,1,0,0,0,0,1
Fs{eNm|XZ^[X,Ȗ،Fs{s䂢̓mP[Q[VV,36.5672950724,139.98406254,1,1,1,0,1,0,0,0,0,1
QXS^X,Ȗ،^scPRRT[P,36.4366060771,140.016031417,1,0,1,0,1,0,0,0,0,1
SFs{򂪋uX,Ȗ،Fs{s򂪋uT[W[Q,36.5705025823,139.916764561,1,1,1,1,1,0,0,0,0,1
̂܂tX|X,Ȗ،sSp̂܂R[Q[QT,36.4628452611,139.841333049,1,0,1,0,1,0,0,0,0,1
SOOcX,Ȗ،cs󍁂P[T[QU,36.8592620347,140.012416296,1,1,1,1,1,0,0,0,1,1
Fs{cX,Ȗ،Fs{scPOQR[Q,36.5339137205,139.857063721,1,1,1,1,1,1,0,0,0,1
VOX,QnOsFP[S[P,36.3867125112,139.047931413,1,1,1,1,1,0,0,1,0,1
PVX,Qns≮Q[S[P,36.3473035197,139.000520448,1,1,1,1,1,0,0,1,0,1
ɐX,QnɐsA撬QRRT[P,36.3107037036,139.184249975,1,1,1,1,1,0,0,0,0,1
OOX,QnOsOR[RR[RQ,36.3991945191,139.082822055,1,0,1,0,1,0,0,1,0,1
X,QnsޒXRP,36.3363699964,139.030019178,0,1,1,1,1,0,0,1,0,1
OrqX,QnOsrqQ[SR[QU,36.4284998694,139.054723563,1,0,1,0,1,0,0,1,0,1
aX,QnassKcROV[Q,36.4727356454,139.002465161,1,1,1,1,1,0,0,0,0,1
SOVcX,QncsUOW[P,36.2753717927,139.377571725,1,1,1,0,1,0,0,0,0,1
ٗѓX,QnٗюsR[S,36.2353023868,139.5299089,1,0,1,0,1,0,0,0,1,1
cC^[X,QncsvPPOO[P,36.6569143821,139.077674676,1,1,1,0,1,0,0,0,0,1
ӃoCpXX,QnOsӒRSX[P,36.4111821964,139.161322009,1,1,1,0,1,0,0,0,0,1
ٗуA[A[X,Qnٗюs풬RUSW[P,36.2406775645,139.569447789,0,0,0,0,0,0,0,0,0,1
TOːX,QnːsL򒬂R[RWPW[P,36.3871660201,139.326036849,1,1,1,0,1,0,0,0,0,1
ԁX[X,Qn݂ǂs厚ԁXSO,36.4141753641,139.281760109,0,0,0,0,0,0,0,1,0,1
ԁXxCVAX,Qn݂ǂs厚ԁXPVVP[R,36.4287233477,139.278758102,1,0,1,0,1,0,0,0,0,1
PWX,Qnsh΍WPX,36.3328742746,138.914790666,1,1,1,0,1,0,0,0,0,1
xoCpXX,QnxsxQQTX[Q,36.2633781736,138.899182607,1,1,1,0,1,0,0,0,0,1
ɐ{qX,Qnɐs{qRSTO[P,36.3363736163,139.155267259,0,0,1,0,1,0,0,0,0,1
ԖxxCVAX,Qnɐss꒬P[PTSQ,36.3707337826,139.224701811,0,0,0,0,0,0,0,0,0,1
ɐ蓌As^X,QnɐsOTRRO,36.3291340104,139.23261561,1,0,0,0,0,0,0,0,0,1
TOhX,QncsێRPSOV,36.3467532012,139.380672974,1,0,1,0,1,0,0,0,0,1
VcVbsOZ^[X,QncsVcs䒬VPR,36.3029907851,139.301813499,0,0,0,1,0,0,0,0,0,1
VcX,QncsVcs䒬VPT,36.3055727592,139.30351908,1,1,1,1,1,0,0,0,0,1
WyJCYz[X,QnWySWy厚RWXO[QV,36.2698455403,139.483255096,0,0,1,0,1,0,0,0,0,1
C^[X,Qns˂UU[P,36.256905073,139.068432982,1,1,1,0,1,0,0,0,0,1
RTSX,QnWyS򒬒R[PW[Q,36.2572072838,139.422400007,0,1,1,0,1,0,0,0,0,1
gtHIX,QnkQnSgvۂXOP[P,36.4181639162,139.026865838,1,0,1,0,1,0,0,0,0,1
ʑƂ肹X,QngSʑѓQVO[P,36.3022106267,139.126447248,1,0,1,0,1,0,0,0,0,1
菬X,QnsPORO[P,36.3497748834,138.968419788,1,1,1,0,1,0,0,0,0,1
aJCYz[X,QnasXPX,36.5066798896,139.015338489,1,0,1,0,1,0,0,0,0,1
TOOX,QnOsR[PX[P,36.3845670816,139.085101623,1,1,1,0,1,0,0,0,0,1
CI[cX,QncsΌWP,36.2951495868,139.3998465,0,0,0,1,0,0,0,0,0,1
ː}[PbgVeBX,QnːsP[PQS[P,36.4052437619,139.318633965,1,0,1,0,1,0,0,0,0,1
CI[X,QnsPSOO,36.3909992455,139.00631539,0,0,0,1,0,0,0,0,0,1
O₫EH[NX,QnOsQ[P[P,36.378985876,139.078536585,1,0,0,0,0,0,0,0,0,1
iqOwX,QnOs\Q[QX[PU,36.3832157928,139.072680529,1,0,0,0,1,0,0,0,0,0
q쐼X,Qnsq쒬VxRXQ[P,36.2991258529,139.038383304,0,0,1,0,1,0,0,0,0,1
ɐΘCX,QnɐsؒQRXR[P,36.2976674096,139.215393657,1,1,1,0,1,0,0,0,0,1
O݂Ȃ݃p[[X,QnOsVxXTU,36.3297697954,139.09844243,1,0,1,1,1,0,0,0,0,1
OK[fX,QnOsTSU[P,36.3561312794,139.131281299,1,1,1,0,1,0,0,0,0,1
cX,QncsPPSUP[P,36.2902091881,139.395116832,1,1,1,1,1,0,0,0,0,1
X,ʌshR[PR[R,35.8034677584,139.720295215,1,0,0,1,1,0,0,1,0,0
X,ʌsgQ[Q,35.7872265932,139.472789738,0,1,0,1,1,0,0,0,0,0
kYaX,ʌ܎sYakYaR[S[PS,35.8724213283,139.646343172,1,0,0,0,1,0,1,0,0,0
nX,ʌsŐVS[P,35.828994393,139.691802443,1,0,0,0,1,0,0,0,0,0
ߐwrX,ʌxms厚ߔnQUOQ[R,35.8458228384,139.538527885,0,0,0,0,1,0,0,0,0,0
{wOX,ʌ܎s{咬P[XQ[U,35.9069971287,139.625012203,1,0,0,0,1,0,0,0,0,0
z}CX,ʌzsecPOR,35.9073360898,139.483740918,0,0,0,0,0,0,0,0,0,0
PUtX,ʌts쒆]WTO[P,35.9722766323,139.736423384,1,1,1,1,1,0,0,1,0,1
X,ʌs؂Q[QP[P,35.8153948921,139.70499909,1,0,0,0,1,0,0,0,0,0
PVX,ʌs̏oP[PO[PR,35.9648933914,139.60540403,0,1,1,1,1,0,0,1,0,1
j[Vg{X,ʌ܎s{ђUWT[P{w\,35.9072889758,139.622610452,0,0,0,0,1,0,0,0,0,0
YaX,ʌ܎sYa撇P[Q[PS,35.8595546946,139.655553185,1,0,0,1,1,0,0,0,0,0
X,ʌsP[Q[PO,35.825575297,139.804295785,1,0,0,1,1,0,0,0,0,0
VX,ʌsΒR[X,35.8004763959,139.448535443,0,1,1,1,1,0,0,1,1,1
X,ʌsR[P[W,35.8109525855,139.734974496,1,1,1,1,1,0,0,1,1,1
ŉX,ʌsŉP[V[Q,35.8363237517,139.698736,1,1,1,1,1,0,0,1,0,1
X,ʌscRPPP[P,36.0809660124,139.488809562,1,1,1,1,1,0,0,1,1,1
{X,ʌ܎s{ؒP[T[P,35.9050009077,139.622860245,1,1,0,1,1,0,0,0,0,0
PUΓX,ʌ܎s΋撇Q[S[QR,35.9438187686,139.706603195,1,0,1,0,1,0,0,1,1,1
{oCpX^X,ʌ܎s攪qP[S[PT,35.8849307371,139.614793968,0,1,1,1,1,0,0,0,0,1
}CX,ʌs{P[T[Q,35.9979937842,139.562880486,0,0,0,1,1,0,0,0,0,1
As^{X,ʌ{sP[Q[PO,36.2363793563,139.183176984,1,0,1,1,1,0,0,1,1,1
FJoCpXX,ʌFJs厚˂WVW[P,36.1656285457,139.39234744,1,0,1,1,1,0,1,1,1,1
SoCpXԋvX,ʌzJs厚ԋvOVUR[P,35.9288076358,139.787329148,1,1,1,0,1,0,0,0,0,1
X,ʌsV[X[PX,36.0236324494,139.652264307,1,0,1,1,1,0,0,0,0,1
YaԖؓX,ʌ܎s΋Ԗ؂TXO,35.8729065845,139.699391687,1,1,1,0,1,0,0,0,0,1
PVk{X,ʌk{sRP[UO,36.0335189744,139.543847059,1,0,1,0,1,0,0,0,1,1
ɓޒX,ʌkSɓޒhR[SW,35.9792621583,139.640712932,1,0,1,1,1,0,0,1,0,1
tX,ʌˎscR[QP[QP,35.9505395225,139.41040378,1,0,1,0,1,0,0,0,0,1
ʂX,ʌ܎s扺vۂVQO[P,35.863770586,139.602870562,1,1,1,0,1,0,0,0,1,1
PU[X,ʌ܎s[R[QV[V,35.9547716239,139.6625129,1,0,1,0,1,0,0,0,1,1
X,ʌsV{哹ʂRPT[Q,35.824654276,139.824454941,1,1,1,0,1,0,0,0,0,1
{acX,ʌ܎sacP[VXO[P,35.9204004838,139.651234701,1,1,1,1,1,0,0,0,0,1
RX,ʌsRPTPX[P,35.7783579692,139.434647515,1,0,1,0,1,0,0,0,1,1
PUaX,ʌtsUTQ[R,35.9888004448,139.802893154,1,0,1,0,1,0,0,0,0,1
YaȖ{X,ʌ܎sȖ{P[PX[P,35.8356289644,139.631135677,1,1,1,1,1,0,1,0,0,1
֓X,ʌzs֓P[P[S,35.9257667872,139.44226872,0,0,0,1,1,0,0,0,0,0
YacEX,ʌ܎s摾cES[PT[S,35.8596568874,139.675618137,1,0,1,0,1,0,0,1,0,1
{oCpX{X,ʌ܎skiR[SPU[P,35.9371130585,139.600148383,0,0,1,1,1,0,1,1,1,1
zؖړX,ʌzsؖڂRTR[P,35.8967375963,139.516084138,1,1,1,1,1,1,0,1,0,1
scoCpXX,ʌscs厚PSTV[P,36.1572930774,139.474249921,1,0,1,0,1,0,0,0,1,1
gX,ʌgsP[QQ[PO,35.885431884,139.845786493,0,0,1,0,1,0,0,0,0,1
YaX,ʌ܎s攒T[PX[PX,35.8448136395,139.647361423,0,0,0,0,1,0,0,0,0,0
ԉC^[X,ʌ[JsrPTS[Q,36.1219236286,139.240955548,1,0,1,0,1,0,0,0,1,1
zwX,ʌzsec{U[X,35.9062744992,139.482089713,1,0,0,0,1,0,0,0,0,0
ՋwOwX,ʌshQ[PQ[P,35.8433859832,139.801207826,0,0,0,0,1,0,0,0,0,0
IR[RX,ʌRsLQ[SP[P,35.8582967751,139.395171016,0,0,0,1,0,0,0,0,0,1
CI񂰂X,ʌzJsԑ䐼R[Q[PQ,35.9335390532,139.766959302,1,0,0,0,0,0,0,0,0,0
VFX,ʌVsΎ~W[PU[R,35.80247249,139.571027691,0,0,0,0,0,0,0,0,0,1
tCg[[Jh[X,ʌtsP[PR[P,35.9797966936,139.749631951,0,0,0,0,0,0,0,0,0,1
QTSTvۓX,ʌӂݖs߃R[Q[QT,35.8691412618,139.505324503,0,1,1,0,1,0,0,0,0,1
߃RfBCC_X,ʌ߃s߃PuUT[P,35.9366739155,139.422535245,1,0,0,0,1,0,0,0,0,1
ʈa@X,ʌԌSјCR厚јC{RW,35.9392904991,139.305365725,0,0,0,1,0,0,0,0,0,1
zɐȂX,ʌzsɐR[Q,35.9223128897,139.427292362,0,0,0,0,0,0,0,0,0,1
YawOX,ʌ܎s΋擌YaT[P[P,35.8642605037,139.70555429,0,0,0,0,1,0,0,0,0,0
PQTIX,ʌvsPVSP[P,36.1174790714,139.673805299,1,0,1,0,1,0,0,0,0,1
tX,ʌtsǓQ[V[QO,35.9812442798,139.75890749,0,0,0,1,1,0,0,0,0,1
J˃t@CX,ʌsJ˂P[P[QR,35.8138145936,139.801127642,0,0,0,0,1,0,0,0,0,0
SURTJX,ʌs厚TJTVW,35.8089243204,139.521166406,1,0,1,0,1,0,0,0,0,1
ّ݂䐼X,ʌxmsّ݂Q[P[PR,35.8375430005,139.551187694,1,0,0,1,1,0,0,0,0,0
CI{X,ʌ܎sOU[UOV[PR,35.9180130081,139.590248613,0,0,0,1,0,0,0,0,0,1
{\jbNVeBOX,ʌ܎s{ؒQ[Q[QP,35.9058579964,139.621491439,0,0,0,0,1,0,0,0,0,0
PQQVhX,ʌs厚VhWXS[P,35.8470959828,139.734033948,1,0,1,0,1,0,0,1,0,1
gwOX,ʌgsؔQ[R[X,35.8763745008,139.843121532,1,0,0,0,1,0,0,0,0,0
QTS쓇Gb\rrX,ʌS쓇ɑcTQQ[P,35.9697547631,139.469669878,1,0,1,0,1,0,0,0,0,1
X,ʌscVPPWP[PQ,36.0072669375,139.698650458,1,0,1,0,1,0,0,0,0,1
QTS쒬X,ʌS쒬JPRWQ[P,36.0704939813,139.274867773,0,0,1,0,1,0,0,1,1,1
RN[VeBX,ʌ܎s{g~S[QUR[U,35.8955280965,139.633502777,1,1,1,1,1,0,0,0,0,1
VRwOX,ʌRsVRR[PQ[P,35.874172663,139.433352115,1,0,0,0,1,0,0,0,0,0
wX,ʌsJÂQ[PQR[PV,35.9728350734,139.587679666,0,1,0,1,1,0,0,0,0,0
˃VbsOZ^[X,ʌs˂QTPW,35.9932528032,139.599515326,0,0,0,0,0,0,0,0,0,1
xNX,ʌsS[R[QS,36.0007432916,139.076377628,0,0,0,0,0,0,0,0,0,1
zJt@CX,ʌzJs퐶S[SS,35.8887393432,139.785898955,1,0,0,1,1,0,0,0,0,0
StX,ʌts㓌P[V[PR,35.9634791158,139.771100786,1,1,1,0,1,0,0,0,0,1
zNA[X,ʌzsVxQ[S[R,35.9130337623,139.483121852,1,0,0,0,1,0,0,0,0,0
{JCYz[X,ʌ܎s捂؂PSWO[Q,35.9365811023,139.57672596,0,0,0,0,0,0,0,0,0,1
RPuȂX,ʌsዷP[QXRW[P,35.8045015573,139.419475541,0,0,0,0,0,0,0,0,0,1
R΋X,ʌRs厚΋xPUPP[R,36.0348159412,139.384097349,0,0,1,0,1,0,0,0,1,1
zJ쒬X,ʌzJs쒬Q[PP[W,35.8579583689,139.806438457,0,0,1,0,1,0,0,1,0,1
򋷎RX]X,ʌRsSRP[S,35.8310941693,139.432223664,0,1,1,0,1,0,0,0,0,1
PU˓X,ʌzs˂Q[PP[QW,35.8937824305,139.45571747,1,1,1,0,1,0,0,0,1,1
{xNX,ʌ{s{Q[R[U,36.2374491678,139.191080427,0,0,0,0,0,0,0,0,0,1
{X,ʌ܎s{咬P[QW[Q,35.9062727819,139.625600238,0,1,0,1,1,0,0,0,0,0
ȗ^t[hZ^[X,ʌsȂR[PP[T,35.9842049892,139.570352074,0,0,0,0,0,0,0,0,0,1
wOX,ʌslP[Q[W,35.8149601377,139.587741597,1,0,0,0,1,0,0,0,0,0
㗢{؃xNX,ʌʌS㗢{؂QTTW[P,36.2382016801,139.163520825,0,0,0,0,0,0,0,0,0,1
RoCpXIR[X,ʌSRRP[P,36.0421013474,139.315762356,0,0,0,0,0,0,0,0,0,1
PV{Gb\rrX,ʌ{sR[S[PX,36.2338864598,139.209725078,1,0,1,0,1,0,0,0,0,1
nIR[X,ʌns쒬P[T[Q,35.8227273923,139.694412751,1,0,0,0,0,0,0,0,0,1
VnX,ʌsVnVQ[P,35.8171061994,139.771303656,1,0,1,0,1,0,0,0,0,1
㕟Cg[[Jh[X,ʌӂݖs匴Q[P[RO,35.8802273151,139.518879843,0,0,0,1,0,0,0,0,0,1
ڒʂaX,ʌasqS[P[P,35.7929039872,139.638652592,1,1,1,0,1,0,0,0,0,1
tsnoX,ʌtsڐVcXVS[P,35.9910253998,139.75903208,1,0,0,0,0,0,0,0,0,1
TxNXX,ʌsR[X[PR,35.8396918763,139.798266559,0,0,0,0,0,0,0,0,0,1
vwOX,ʌvsv쒆P[P[R,36.0660899613,139.676429399,1,0,0,0,1,0,0,0,0,0
SOV߃X,ʌ߃s厚rܖ_PJ˂PPSP[S,35.9408893194,139.393067319,1,1,1,0,1,0,0,0,0,1
[JwOX,ʌ[JsQ[PO[P,36.1921997964,139.281986114,1,0,0,0,0,0,0,0,0,0
uؓX,ʌu؎s{T[QT[W,35.8236254913,139.575209539,1,0,0,0,1,0,0,0,0,0
PVX,ʌsVhQ[PWO,36.1134415781,139.440014643,1,0,1,0,1,0,0,0,1,1
^}GcX,ʌ܎sJQ[TSW[Q,35.8684174721,139.63067828,1,0,0,0,0,0,0,0,0,0
V^t[hZ^[X,ʌVsΎ~T[Q[UO,35.8032826123,139.55822014,0,0,0,0,1,0,0,0,0,1
ZL`[X,ʌs{PJP[QSO,36.0001248941,139.602892259,1,0,0,0,0,0,0,0,0,1
ԉ򃄃IR[X,ʌԎs򎚖{RWWV[Q,35.8155124208,139.404713305,0,0,0,0,0,0,0,0,0,1
nX,ʌsnSOW[Q,35.9524171378,139.568166605,1,0,1,0,1,0,0,1,0,1
SURwPX,ʌskQ[Q[PP,35.7973503062,139.425614192,1,0,1,0,1,0,0,0,0,1
wOX,ʌRshP[PS[R,36.0021891526,139.397123386,0,0,0,0,1,0,0,0,0,0
јCRX,ʌԌSјCR厚pS[P,35.9475813005,139.329018921,0,0,1,0,1,0,0,1,0,1
ːcIR[X,ʌˎscQ[POP[P,35.957187282,139.406688274,0,0,0,0,0,0,0,0,0,1
QXXoCpXX,ʌRs厚䎚؂QUVV[X,35.8464448118,139.364947131,0,1,1,0,1,0,0,0,1,1
kX,ʌskPRVR[Q,35.8071101018,139.480250526,0,0,1,0,1,0,0,1,0,1
ԎswX,ʌԎs͌Q[P,35.8421301226,139.389642415,0,0,0,0,1,0,0,0,0,0
CI{X,ʌ܎skQ[TVS[P,35.9231254332,139.609029581,0,0,0,1,0,0,1,0,1,1
ȂX,ʌkStP[PQ,35.9267501892,139.821936285,0,0,0,0,0,0,0,0,0,1
CIFJX,ʌFJs{΂Q[PRT,36.1458482001,139.378579149,0,0,0,1,0,0,0,0,0,1
Rk]IR[X,ʌRsk]VQO[P,35.8463545781,139.428891669,0,0,0,1,0,0,0,0,0,1
}GcX,ʌsQ[X[RU,36.0075017431,139.557972742,0,0,0,0,0,0,0,0,0,1
{oCpXOX,ʌ܎sOT[PUSW[P,35.9074635271,139.596223252,0,1,1,0,1,0,0,0,1,1
PJwOX,ʌs≺P[PS[PX,35.8301585251,139.73685606,1,0,0,1,1,0,0,1,1,0
PQQHX,ʌHs厚PUQ[P,36.1423269521,139.555272202,1,1,1,1,1,0,0,0,0,1
񂰂wX,ʌzJsԑ䐼P[S[R,35.935384293,139.77329091,1,0,0,0,1,0,0,0,0,0
kzJ}XgAX,ʌzJsVR[U[P,35.9023434954,139.780490807,1,0,0,0,1,0,0,0,0,0
SzJX,ʌzJs_Q[WP[P,35.894741811,139.768582408,1,0,1,0,1,0,0,1,0,1
VCtX,ʌVsIS[PQ[QT,35.755563358,139.550894347,1,0,0,0,0,0,0,0,0,1
QTSOFX,ʌVsQ[Q[R,35.8191594875,139.549933819,1,0,1,1,1,0,0,1,0,1
PUÒJX,ʌzs厚ÒJXXP[P,35.9168998334,139.51879226,1,0,1,0,1,0,0,0,1,1
VrcxNX,ʌVsrcS[T[PQ,35.7696448537,139.572822191,1,0,0,0,0,0,0,0,0,1
O샂[[t@^W[X,ʌsOP[P[PP,35.8344219866,139.707784196,0,0,0,0,0,0,0,0,0,1
ԓX,ʌs厚ԂPWW[P,35.8649337856,139.727174921,1,1,1,0,1,0,1,0,0,1
kIR[X,ʌskPSPT[P,35.8096287328,139.481246173,0,0,0,0,0,0,0,0,0,1
ӂݖwOX,ʌxmsӂݖ쐼P[QO[Q掵}cgr,35.8607484975,139.522331444,1,0,0,0,1,0,0,0,0,0
PQTFJX,ʌFJsJcђ˂PRWS,36.1357653035,139.424758654,0,0,1,0,1,0,0,0,0,1
CIRX,ʌRs㉜xPPQU[P,35.8675600271,139.410599048,0,0,0,1,0,0,0,0,0,1
iq˓cX,ʌ˓cs{S[PT[PQ,35.8082480109,139.677252297,0,0,0,0,1,0,0,0,0,0
k{Ό˓X,ʌk{sΌ˂T[PVR[Q,36.0204702759,139.526919871,0,0,1,0,1,0,0,0,1,1
FJIR[X,ʌFJsQ[PQR[P,36.1389080085,139.393875619,0,0,0,0,0,0,0,0,0,1
nђCg[[Jh[X,ʌnsђP[PQ[P,35.8216376213,139.677630613,0,0,0,1,0,0,0,0,0,1
{{Cg[[Jh[X,ʌ܎sk{P[WTS[P,35.9330329673,139.620992603,0,0,0,1,0,0,0,0,0,1
CI[k˓cX,ʌ˓csؓP[R[P,35.8269405302,139.653000553,1,0,0,1,0,0,0,0,0,1
OsAVeBX,ʌOssAVeBP[P[QOO,35.8425764169,139.855246319,1,0,0,0,0,0,0,0,0,1
̉ƓX,ʌs̉ƂR[T[R,35.795145512,139.746559427,1,1,1,0,1,0,0,0,1,1
CI[YaX,ʌ܎s΋T[TO[P,35.8919649964,139.730739077,1,0,0,1,0,0,0,0,0,1
X,ʌshR[T[P,35.8030341404,139.718211243,0,0,0,0,1,0,0,0,0,0
˒ˈsX,ʌsVcRQU[P,35.8593892773,139.75322265,1,0,1,0,1,0,0,0,0,1
QTSʓX,ʌ{sʒgcтRWS[P,36.1981732053,139.133277554,1,0,1,0,1,0,1,0,1,1
PUwX,ʌ܎s{OVRR[P,35.9243512885,139.58390862,1,0,1,0,1,0,0,0,0,1
{ro[X,ʌ{sP[QX,36.110539496,139.608827806,1,0,0,1,0,0,0,0,0,1
˓csʂX,ʌ˓cs˓cP[PV[P,35.8165818289,139.678599901,1,1,1,1,1,0,0,1,1,1
SOVȏC[X,ʌFJs퓡PPQO[P,36.2099220975,139.370530006,1,0,1,1,1,0,0,0,1,1
CI[HX,ʌHsQ[QWP[R,36.1426985333,139.543330154,0,0,0,1,0,0,0,0,0,1
K[ftX,ʌtsP[P[P,35.9773254544,139.755133805,1,0,0,0,0,0,0,0,0,1
zJX,ʌzJszJR[PV[T,35.8968681935,139.797918712,1,0,1,0,1,0,0,0,1,1
CICN^ElnqhX,ʌzJsCN^ER[P[PCICN^ElnqhRKaXRRPX,35.8821470491,139.827838153,1,0,0,1,0,0,0,0,0,1
K[fX,ʌs{PW[X,35.8053050219,139.698461999,0,0,0,1,0,0,0,0,0,1
OOړX,ʌOsOR[PQ[R,35.846069195,139.880201556,1,1,1,0,1,0,0,0,1,1
Ҋ[WX,ʌvsҊҊUOOT[P,36.0756543124,139.609989687,1,0,0,0,0,0,0,0,0,1
ہ[ƐVOX,ʌOsVOVeBR[P[P,35.8587796603,139.868182616,1,0,0,1,1,0,0,0,0,1
SX,ʌsUO[P,35.8266795933,139.79307475,1,0,1,1,1,0,0,0,1,1
FJwOX,ʌFJs}gQ[POQrrfBOPEQK,36.1404713141,139.389092355,1,0,0,0,1,0,0,0,0,0
쒬X,ʌs쒬Q[V[PP,35.8048724026,139.702557223,0,0,1,1,1,0,0,0,0,1
SOVoCpXX,ʌRsܒQ[W[Q,36.0047427736,139.408327879,0,0,1,0,1,0,0,0,0,1
zJCN^EX,ʌzJsCN^EQ[P[P,35.8839376307,139.815676615,1,1,1,1,1,0,1,0,1,1
OX,ʌsOP[P[PP,35.806876591,139.576787856,1,1,1,1,1,0,0,0,0,1
S咬X,ʌs咬QVO[P,35.8512482741,139.78508499,0,1,1,1,1,0,0,0,1,1
PSOX,ʌs쒬S[R,35.9966460059,139.087897358,1,0,1,0,1,0,0,0,1,1
QXXoCpXє\X,ʌє\sRRRT[Q,35.8613822631,139.322139916,0,0,1,0,1,0,1,0,1,1
wOX,ʌs吣P[PP[PR,35.8096623464,139.844797986,1,0,1,1,1,0,0,0,0,1
쉺oJX,ʌsoJP[RR[V,35.9953005754,139.54579289,1,0,1,0,1,0,1,0,1,1
OX,ʌOsJOڏSVP[P,35.8283985975,139.876872556,0,0,1,1,1,0,0,0,1,1
CIX,ʌӂݖsӂݖP[Q[P,35.8597561712,139.514230787,0,0,0,1,0,0,0,0,0,1
h{AIX,ʌvsv{JcV[P,36.0786039594,139.660891604,0,0,0,0,0,0,0,0,0,1
SKX,ʌKs厚㍂QOQU[P,36.0525356449,139.717034263,1,1,1,1,1,0,0,0,1,1
QTSaX,ʌas{QV[QP,35.7848992106,139.602810967,1,1,1,1,1,0,0,0,0,1
[JēX,ʌ[JsĒT[V[T,36.1786033134,139.303803681,1,0,1,1,1,0,0,0,1,1
ɂԂ݂ؓX,ʌˎsɂԂ݂؂R[QO[P,35.9692115982,139.369599575,1,0,1,1,1,0,0,1,1,1
PUԋ{X,ʌԎs{QRQQ[PP,35.8000963315,139.371326497,1,0,1,1,1,0,0,0,1,1
CI[tX,ʌtsSQO[P,35.9878496131,139.788669128,0,0,0,1,0,0,0,0,0,1
{{X,ʌ܎sk{WUO,35.946050395,139.621381209,0,0,1,1,1,1,0,0,0,1
AIX,ʌs厚뒚ڂRUV,35.9613985549,139.565665622,1,0,0,0,0,0,0,0,1,1
PSOFJLX,ʌFJsLPTT[P,36.1526921617,139.358431988,1,1,1,1,1,1,0,0,1,1
RX,ʌsRPO[P,35.8984277175,139.350627381,1,0,1,1,1,0,1,0,1,1
SOVRX,ʌRsVhP[P,36.0370087947,139.417028328,1,0,1,1,1,1,0,0,0,1
CI[^X,ʌ܎s{T[Q[XCI[^Pe,35.8913636361,139.615341439,1,0,0,1,0,0,0,0,0,1
PVČVxX,ʌFJsVxWUP[P,36.1782690894,139.331396324,1,0,1,1,1,0,0,0,0,1
xmہ[ƓX,ʌxmsRP[PRPR,35.8578064898,139.549127054,1,0,0,1,1,0,0,0,0,1
CICN^Ej`ydX,ʌzJsCN^ES[Q[QCICN^Ej`ydPKPPQ,35.8783371338,139.825337965,1,0,0,1,0,0,0,0,0,1
z㎛RX,ʌzs㎛RRWS[P,35.9305497168,139.46823464,1,0,1,1,1,0,0,0,0,1
vC^[X,ʌvs㑁PUX[P,36.0671127121,139.659095838,1,1,1,1,1,0,1,0,0,1
{X,tss씪S[U[P,35.7203671028,139.926611044,1,1,0,0,1,0,0,0,0,0
txmX,ttsxmQ[S[PS,35.6108731292,140.116418011,1,1,0,1,1,0,0,0,0,0
PSKX,ttslKQ[QS[P쓇Kr,35.6192899877,140.096747945,1,0,1,1,1,0,0,1,0,1
PSX,ttsԌ斋P[VVWT[P,35.6624945597,140.044457566,1,1,1,1,1,0,1,1,0,1
X,tsP[Q[RP,35.8612243958,139.971574565,0,0,0,0,1,0,0,0,0,0
DX,tDs{P[T[R,35.7001409755,139.985985439,1,1,0,1,1,0,0,0,0,0
ÓcwOX,tDsOQ[PS[WÓcpX^Pe,35.6918270112,140.020677003,1,0,0,0,1,0,0,0,0,0
UV˓X,tˎsb؂PVWQ[P,35.8172278547,139.926310477,0,0,1,1,1,0,0,0,0,1
YX,tYskhP[PT[PR,35.6656057051,139.893408569,1,0,0,1,1,0,0,0,0,0
PUcX,tcsߕPX,35.9583069193,139.873989733,0,1,1,1,1,0,0,1,0,1
PUX,ttsы所RVQ[P,35.649917397,140.117913805,1,0,1,1,1,0,0,1,0,1
PU؍XÓX,t؍XÎsP[PW[RP,35.3718819392,139.932436465,1,1,1,1,1,0,0,1,0,1
sX,tssswOQ[P[RO,35.6834175895,139.914068044,1,1,0,0,1,0,0,0,1,0
cwOX,tcsԍ蒬WPU[Q,35.7775559078,140.315368307,1,1,0,1,1,0,0,0,0,0
NÓX,tNÎsqW[Q[RQ,35.3294620231,139.924108019,0,0,1,1,1,0,0,1,1,1
ΌX,tΌsΌWT[P,35.4273760726,140.287254614,0,1,1,1,1,0,0,0,1,1
wOʂX,tsP[T[QP,35.8610519443,139.972651425,1,0,0,1,1,0,0,0,0,0
PUX,ts\]QVU[RV,35.8824035113,139.965515327,1,0,1,0,1,0,0,0,0,1
씐X,ts씐Q[X[PT,35.847331594,139.953845803,1,0,1,0,1,0,0,1,0,1
lXX,tlXslXP[Q[R,35.6630027472,140.164734595,0,0,0,0,1,0,0,0,0,0
RX,tRsԗւPSOT[P,35.866865799,139.903038213,0,0,1,1,1,0,0,0,0,1
TPᏼX,ttstᏼQPQT[P,35.6351644894,140.164944316,1,1,1,1,1,0,0,0,1,1
eNmK[fX,ttsl撆P[R,35.6508783076,140.042328493,1,0,0,1,1,0,0,0,0,0
aX,tDsaU[QO[P,35.7557166015,140.024740736,1,0,1,0,1,0,0,0,0,1
CIѓX,ttsы揬P[S[QOCIfe,35.6367599335,140.09537291,0,0,0,0,0,0,0,0,0,1
VYwOX,tYsDP[T[P,35.6494249955,139.913028947,0,0,0,0,1,0,0,0,0,1
PUX,tsÃPuP[TV[R,35.8404792762,140.004004602,1,0,1,1,1,0,1,1,1,1
여RX,tRshPPP[U,35.8401083627,139.906846478,1,1,1,0,1,0,0,0,0,1
X,tskQ[PS[R,35.8993620973,140.494094584,1,0,1,0,1,0,0,0,0,1
ԓX,tԔs݂₱Q[P[U,35.5202484364,140.31740083,0,0,1,0,1,0,0,0,0,1
ʂsX,tss܈䓌R[SW[S,35.5164949861,140.101662228,0,1,1,1,1,0,0,0,0,1
~X,tDs~T[QO[PP,35.7093300176,140.04034074,1,0,1,1,1,0,0,0,0,1
䑷qwOX,t䑷qs{Q[Q[V,35.8721006567,140.012190117,1,0,0,1,1,0,1,1,1,0
tRX,tts擌tR[PS[QO,35.6276717936,140.126518145,0,0,1,0,1,0,0,0,1,1
CI[xÓX,txÎs؂P[T[P,35.3300232158,139.84601098,0,0,0,0,1,0,0,0,0,1
tsX,ttssQ[RR[PO,35.6106011388,140.144489539,1,1,1,0,1,0,0,0,0,1
CIX,tts΋您ݖR[PU݁[銙X,35.5617958421,140.177680375,0,0,0,0,1,0,0,0,0,1
܍X,tˎs܍P[PP[PQ,35.7953248145,139.969307995,1,0,1,1,1,0,0,0,0,1
ΌXÎsX,tts΋Îs꒬UQO[P,35.5465722449,140.14577146,0,1,1,0,1,0,0,0,1,1
cj[^EX,tcsѓcPSR[V,35.7683776098,140.299169774,1,1,1,0,1,0,0,0,0,1
X,tsPPOP[Q,35.1091952572,140.101936474,0,0,1,0,1,0,0,0,0,1
c`Q^[~iX,tcsÍÍP[Pc`Qq^[~i,35.7740932855,140.388417558,0,0,0,0,1,0,0,0,0,0
RTU󐼓X,t󐼎sXQTRP[P,35.8337908225,140.146185319,1,0,1,0,1,0,0,1,0,1
tX,ttsxmQ[QR[X,35.6082554191,140.118333233,1,0,0,0,1,0,0,0,0,0
TPXX,t׌SX䒬XWWX[PU,35.7335160721,140.272222642,1,0,1,0,1,0,0,0,0,1
lXX,tlXsRPX[P,35.6727213168,140.162466336,0,1,1,0,1,0,0,0,1,1
sRgvUX,tssSP[P[P,35.7170962706,139.93362447,0,0,0,1,1,0,0,0,0,1
c݂ȂX,tcs݂Q[PQ,35.9234742196,139.885569059,0,0,0,1,0,0,0,0,0,1
QXUxX,txshPRO[QT,35.7378420362,140.315389097,1,1,1,0,1,0,0,0,0,1
؍XÃ}bNXo[X,t؍XÎscS[PW,35.3764956222,139.944092519,0,0,0,0,1,0,0,0,0,1
DwOX,tDsDS[QQ[S,35.7083845947,139.958806576,1,1,0,0,1,0,0,0,0,0
kX,tssxVR[RO[PW,35.7644497976,139.911794406,1,0,1,0,1,0,0,0,0,1
k˓X,tˎs{WWX[R,35.8002452089,139.911739904,0,0,0,0,1,0,0,0,0,0
qwOX,tqsŒPR[PX,35.7305535368,140.827877363,1,0,0,0,1,0,0,0,0,0
SOXXX,tXs᎚ROP[RSRR,35.6859177431,140.310881597,1,0,1,0,1,0,0,0,0,1
vۓX,tKusvۂP[QS[P,35.6864286391,140.048265441,1,0,0,0,1,0,0,0,0,0
QXUpX,tsacVcSPP,35.7238985992,140.089658196,1,0,1,0,1,0,0,0,0,1
V˃RfBCC_X,tˎsV˂T[PRS,35.8282305493,139.907382471,1,0,0,0,0,0,0,0,0,1
Cg[[Jh[X,ttsԌ斋S[SPV[QT,35.6559713075,140.051198092,0,0,0,1,0,0,0,0,0,1
C^[X,tscVSP[P,35.9103659492,139.935995861,0,0,1,0,1,0,0,0,0,1
RwOX,tDs{RQ[PU[P,35.7148440076,139.943341515,0,0,0,0,1,0,0,0,0,1
CIXX,tXs᎚ROP[R[U,35.6812480555,140.313317137,1,0,0,0,0,0,0,0,0,1
َRǂX,tَRskWOU[T,34.9912467959,139.873334477,0,0,1,0,1,0,0,0,0,1
ݖX,tts΋您ݖ쒆R[QR[R,35.5517617703,140.170376119,0,0,1,0,1,0,0,1,0,1
㑍vX,tssvPOSW[Q,35.4003535929,140.144584656,0,0,1,0,1,0,0,0,0,1
oX,tss}ccTP[R,35.4655041816,140.045020723,0,0,1,0,1,0,0,0,0,1
PQUœX,tRSŌłWOX[P,35.6604219774,140.484049985,1,0,1,0,1,0,1,1,1,1
CIs얭TX,tssTS[S[P,35.692074465,139.927068814,1,0,0,0,0,0,0,0,0,1
ˉwOX,tˎs˂R[P[PT,35.7700275019,139.942716,1,1,1,0,1,0,0,0,0,1
ÓcX,tKusÓcS[X[PQ,35.6827922573,140.023045502,1,0,0,0,1,0,0,0,0,1
у}sAX,ttsl捂FR[PR[P,35.6285674915,140.073688964,0,0,0,1,0,0,0,0,0,1
VˉwOX,tˎsV˂P[SWQXJr,35.8261069857,139.920882799,1,0,0,1,1,0,0,0,0,0
CIkX,tˎsPԒn,35.8328565142,139.931607725,0,0,0,0,0,0,0,0,0,1
t䃈[N}[gX,tstQ[PV[W,35.8122053908,139.958177975,0,0,0,0,0,0,0,0,0,1
[X,tRs[QUQ[P,35.9104620401,139.904792955,0,0,1,0,1,0,0,0,0,1
DюRX,tDsюRP[QUP,35.7145170382,140.013276712,0,1,1,0,1,0,0,0,0,1
tuX,ttstXPV,35.5899145186,140.132230299,0,0,0,0,0,0,0,0,0,1
TwX,tssxlP[PS[P,35.6917125101,139.92516649,1,0,0,0,1,0,0,0,0,0
X,tsSVP[P,35.8124034006,140.00876923,1,0,1,0,1,0,0,0,0,1
YxmX,tYsxmP[U[QQ,35.6519055376,139.891860086,1,1,1,1,1,0,0,0,0,1
PUPYX,tPYsQ[PQ[PW,35.4299671267,139.964734202,0,0,1,0,1,0,0,0,0,1
PUcX,tscWWQ[P,35.7683485674,140.098716177,1,0,1,0,1,0,0,0,0,1
ԊXyCX,tts΋捂Ì˒POO[P,35.5329745699,140.257889496,0,0,1,0,1,0,0,1,0,1
swOX,ttstsR[Q[T,35.6355415224,140.149214241,1,0,0,0,1,0,0,0,0,0
ÓcCg[[Jh[X,tKusÓcP[PO[RO,35.6898370506,140.024145957,0,0,0,0,0,0,0,0,0,1
V[N}[gX,ts˃PJWWW[P,35.8428089306,139.980360125,0,0,0,0,0,0,0,0,0,1
CItj[^EX,t󐼎skR[P[P,35.8023759828,140.11388545,1,0,0,1,1,0,0,0,0,1
Y[X,ttsы撷RRO[TO,35.6566149931,140.118466265,1,0,0,1,0,0,0,0,0,1
sVbvXX,tssSR[QW[PU,35.7094219623,139.937567501,1,0,0,1,0,0,0,0,0,1
VKu~X^[}bNXX,tKuslQ[PX[QQ,35.6662205014,140.012446792,0,0,0,0,1,0,0,0,0,1
䂹ǂX,tssU[PO[Q,35.5030582366,140.114881375,0,0,0,0,0,0,0,0,0,1
PQUX,tsjRPUW[P,35.7235602461,140.639042961,0,0,1,0,1,0,0,0,1,1
ԌX,ttsԌVP[P[P,35.6884423079,140.089699075,1,1,1,0,1,0,0,0,0,1
命IuX,t΋S命쒬DqWUP,35.2883932022,140.253619122,1,0,0,0,0,0,0,0,0,1
Cg[[Jh[X,tˎsP[PT,35.7909008991,139.939537367,0,0,0,1,0,0,0,0,0,1
ˍ˃}~[}[gX,tˎsːVcPUO,35.7481118824,139.941556709,0,0,0,0,0,0,0,0,0,1
k˃xNXX,tˎshQ[VU[Q,35.7997311713,139.904067243,0,0,0,0,0,0,0,0,0,1
DCg[[Jh[X,tDs{V[U[P,35.7030744891,139.984298797,0,0,0,1,0,0,0,0,0,1
CI[cX,tcsECOyQS,35.7956886509,140.317517105,0,0,0,1,0,0,0,0,0,1
swOX,tssVS[PS[T,35.6725281799,139.90078211,1,0,0,0,1,0,0,0,0,0
씐wOX,ts씐R[Q,35.8440894635,139.953997311,1,0,0,0,1,0,0,0,0,0
kX,tsskS[PSUR[R,35.7376239603,139.954262167,1,0,1,0,1,0,0,1,0,1
Y샄IR[X,tYsQ[QXS[Q,35.6476930039,139.893656214,0,0,0,0,0,0,0,0,0,1
tj[^EWCt{cX,t󐼎sq̌Q[P,35.8068526868,140.15436656,0,0,0,0,0,0,0,0,0,1
Xe[V[X,tsLP[P,35.8624025619,139.970299347,1,0,0,0,1,0,0,0,0,1
c`P^[~iX,tcsOˌ䗿qP[Pc`ꗷq^[~irSe,35.7641659526,140.38421943,0,0,0,0,1,0,0,0,0,0
ݖ~X^[}bNXX,tts΋您ݖ쒆Q[R[P,35.5554063926,140.161216189,0,0,0,0,0,0,0,0,0,1
CI[ÓcX,tKusÓcP[QR[P,35.6908377573,140.023624849,0,0,0,1,0,0,0,0,0,1
[JvUX,tqs[JuS[P[JvUQe,35.7225716527,140.156005691,1,0,0,0,0,0,0,0,1,1
CI^EcX,tcsS[Q,35.9817509214,139.852793358,0,0,0,0,1,0,0,0,0,1
ہ[Ƃsnjxn]a`xk,tDslQ[P[P,35.6856808173,139.991938575,1,0,0,1,1,0,0,0,0,1
CI[΂uX,ts΂uQ[P[R,35.7282948672,140.072624459,1,0,0,1,0,0,0,0,0,1
hz[YX,tts蒬TT[R,35.5853061976,140.123808697,0,0,0,1,0,0,0,0,0,1
cAGX,tcsÂ̓mS[T,35.7599509782,140.296286473,0,0,0,1,0,0,0,0,0,1
ԊXԈX,ttsԈ䒬VSP,35.5757787523,140.168633352,0,0,1,0,1,0,0,0,1,1
؉XnX,tDsnWOP[V,35.7417662674,139.995343794,1,1,1,0,1,0,0,0,0,1
PQUsX,txssCWO[P,35.700105475,140.551301031,0,0,1,0,1,0,1,0,1,1
CI[X,tsLQ[T[QT,35.8521084921,139.961783268,1,0,0,1,0,0,0,0,0,1
CI[tj[^EX,t󐼎skR[Q,35.802140969,140.112398363,0,0,0,1,0,0,0,0,0,1
c`PQ[gGAX,tcsOˌ䗿qP[Pc`Pq^[~irVقR,35.7634474531,140.385354919,0,0,0,0,1,0,0,0,0,0
̗tLpXwOX,tsĂPVS,35.8941207329,139.95270316,1,0,0,1,1,0,0,0,0,0
VJwOX,tPJsVJQ[X[P,35.7801398556,140.000131275,1,0,0,0,1,0,0,0,0,0
CI^EَRX,tَRsTST[P,35.0062183828,139.859882248,0,0,0,1,0,0,0,0,0,1
PQWVbsOK[fX,tݎsPWTW[P,35.2893301866,140.393318743,1,0,1,0,1,0,0,0,0,1
j͂X,tss͂䐼R[S,35.5279122571,140.171688081,0,0,0,0,0,0,0,0,0,1
QXUuÓX,tqsPSVR[T,35.7177769588,140.137126927,1,1,1,0,1,0,0,0,0,1
pT[X,ttsԌ斋Q[QUTP[Po`r`q,35.6696917825,140.053879255,1,1,0,1,1,0,0,0,0,1
ÓcVAX,tKusJÂP[PU[P,35.6898985862,140.0195369,1,0,0,0,1,0,0,0,0,1
X,tPJsxWTT]T,35.7805086028,140.027299234,1,0,1,0,1,0,0,0,0,1
sX,tsskR[P[P,35.507994597,140.062037027,0,0,1,0,1,0,0,0,0,1
kKuwX,tDsKuQ[P[U,35.7216922891,140.042215358,1,0,0,0,1,0,0,0,0,0
SUS󐼖q̌X,t󐼎sq̌P[R,35.8052275382,140.162635371,1,0,1,0,1,0,0,0,0,1
PSѓX,ttslъC݂S[P[PQ,35.6376493583,140.077735477,1,0,1,1,1,0,0,0,0,1
qX,tqskS[PP[T,35.7130412852,140.215749916,1,1,1,0,1,0,0,0,1,1
䍪X,ts䍪Q[Q[W,35.8235326909,139.967176473,0,1,1,0,1,0,0,0,0,1
PQUX,tRsSXS[P,35.6007332581,140.407761899,1,0,1,0,1,0,0,0,1,1
ʂ蒷YX,tPYsYwOS[PP[X,35.4429556044,140.003790385,0,0,1,0,1,0,0,0,1,1
PUX,tsXPQ[P,35.8611319642,139.984002958,1,0,1,0,1,0,0,0,0,1
NÒxX,tNÎsxXUT[P,35.333542666,139.881941417,0,1,1,0,1,0,0,0,0,1
PU㑺X,tsR[P[P,35.722908041,140.11628626,1,1,1,0,1,0,0,0,0,1
DOX,tDs؈䓌P[P[QO,35.7260661638,140.059918959,1,0,1,0,1,0,0,0,0,1
CI[DX,tDsRP[P[W,35.7120958101,139.978195616,1,0,0,1,1,0,0,0,0,1
R̐XX,tRs΂U[WQX[V,35.869224501,139.926563063,1,1,1,0,1,0,0,0,0,1
SUSJX,tPJsP[W[PR,35.7737508684,140.00071954,0,0,1,0,1,0,0,0,0,1
؍XËcX,t؍XÎsPVQ[P,35.4315300213,139.934074508,0,0,1,0,1,0,0,0,0,1
RTUX,tssꎚDÂXOR[P,35.8596461395,140.600299769,1,0,1,1,1,1,0,0,0,1
SOWcX,tcsP[PX[PR,35.79508248,140.312817527,1,0,1,1,1,1,0,0,1,1
ˉwOX,tˎs˂PQRO[PsAU˃rRK,35.7837381675,139.900975376,1,0,0,1,1,0,0,0,0,0
ہ[Ƃsnjxn]a`x,tDslQ[P[P,35.6865323022,139.988739645,0,0,0,1,0,0,0,0,0,1
PQUX,tshPO[PR,35.5534318251,140.364393029,1,1,1,1,1,0,0,0,1,1
KuX,tKusKuV[P[P,35.6974285095,140.068707988,1,1,1,1,1,0,0,1,0,1
CI[VsSX,ttslLP[PCI[VsSOh,35.6529875464,140.033175294,1,0,0,1,0,0,0,0,0,1
Zup[NAIX,ts哇cP[U[P,35.8335391954,140.013199938,0,0,0,1,0,0,0,0,0,1
XؓX,saJX؂P[RU,35.6838726725,139.701259703,1,0,0,1,1,0,0,0,0,0
gˎX,ssgˎ{P[X[PQ,35.7039005079,139.579722017,1,1,0,1,1,0,0,0,0,0
EX,s㉬P[PO[PQ,35.7048167246,139.618835595,1,1,0,1,1,0,0,0,0,0
X,ssP[X[RS,35.6981112157,139.445948645,1,0,0,1,1,0,0,0,0,0
X,s`őQ[R[P,35.656674918,139.753876879,1,1,0,0,1,0,0,0,0,0
qX,sk扤qP[S[P,35.7531514113,139.738217942,0,0,0,1,1,0,0,0,0,0
쒬X,s쒬Q[PX[X,35.683761821,139.658481399,1,1,0,0,1,0,0,0,1,0
w|X,sڍԂR[V[X,35.6293639218,139.684648298,1,1,0,0,1,0,0,0,0,0
TLkX,sTLT[RS[R,35.767253878,139.848008319,0,1,0,1,1,0,0,0,0,0
OX,scJ摾qS[QR[R,35.6437755374,139.670647522,1,1,0,1,1,0,0,0,0,0
ԉHX,skԉHP[PS[P,35.7793357767,139.721011127,1,1,0,1,1,0,0,0,0,0
LcX,ssQ[Q[P,35.6601996219,139.381664247,0,1,0,1,1,0,0,1,0,0
RX,si揬RR[QR[P,35.6188378726,139.705048652,1,1,0,0,1,0,0,0,0,0
RX,sRT[PiJc{r,35.7483751478,139.702027879,1,1,0,0,1,0,0,0,0,0
X,srrV[TO[XZ^[܂Pe,35.7424143109,139.780558109,1,1,0,1,1,0,0,0,1,0
kT[X,s撆T[UU[P,35.7075446091,139.66559373,1,1,0,1,1,0,0,0,0,0
X,sL摃R[RP[V,35.7342304601,139.737178237,1,1,0,1,1,0,0,0,0,0
RuX,sڍ掩RuQ[PP[X,35.6075853632,139.667605616,1,1,0,1,1,0,0,0,0,0
JX,s戢JQ[PV[W,35.704784431,139.636856285,1,1,0,0,1,0,0,0,0,0
VX,sVP[SU[Q,35.7170342644,139.858688886,0,0,0,1,1,0,0,0,0,0
X,s搬Q[PS,35.7774780611,139.632426243,1,1,0,1,1,0,0,0,0,0
V~cX,ssQ[Q[PP,35.7337639282,139.532113765,1,1,1,1,1,0,0,0,1,1
Ђ΂肪uX,ssЂ΂肪uP[P[Q,35.7513247684,139.544180089,1,0,0,1,1,0,0,1,0,0
wX,sn擌P[RO[U,35.7501279666,139.586156283,0,1,0,1,1,0,0,0,1,0
X,s捂P[VX[PW,35.7862181812,139.673794591,1,0,0,1,1,0,0,1,0,0
PUqX,sqsTR[P,35.6517484756,139.333779223,1,1,1,1,1,0,1,0,1,1
EX,s搼R[QS[P,35.7038699577,139.600648292,1,1,0,0,1,0,0,0,0,0
gˎX,ssgˎ쒬P[P[P,35.702829234,139.579507633,1,1,0,1,1,0,0,0,0,0
qO蒬X,sqsO蒬S[W,35.6575820634,139.336777625,1,1,0,1,1,0,0,0,0,0
rܐX,sL搼r܂P[PX[V̂Ƃ,35.7311534023,139.709597094,1,1,0,1,1,0,0,0,0,0
VX,s~R[RQ[U,35.7775100691,139.790562231,1,0,0,0,1,0,0,0,0,0
ԉHX,skԉHQ[R[PO,35.7790078378,139.72398811,0,0,0,0,1,0,0,0,0,0
VhX,saJX؂Q[U[V,35.6879946491,139.699045003,1,1,0,1,1,0,0,0,0,0
X,ssR[T,35.7425405945,139.32876993,1,0,0,1,1,0,0,1,0,0
VvۓX,sVhSlP[PP[PX,35.7014081539,139.699631915,1,1,0,0,1,0,0,0,0,0
aJZ^[XX,saJFc쒬QW[PT,35.6603994071,139.698440606,0,1,0,1,1,0,0,0,0,0
X,s撆Q[RO[V,35.7047313159,139.665628006,1,1,0,1,1,0,0,0,0,0
cwOX,scscU[Q[PO,35.5435019615,139.445534544,1,1,0,1,1,0,0,0,0,0
rܓX,sLr܂P[QV[W,35.7294672919,139.712905492,1,1,0,1,1,0,0,0,0,0
~X,s捂~S[SV[P,35.7053691464,139.649480188,1,1,0,0,1,0,0,0,0,0
V~aX,sasQ[Q[U,35.7468335369,139.416125912,1,1,1,1,1,0,0,0,1,1
󑐓X,s䓌󑐂P[RR[R,35.7118334826,139.797335693,1,0,0,1,1,0,0,0,0,0
h|ʂX,saJ_{OP[PX[Wht@~[r,35.6715932833,139.703554444,1,1,0,1,1,0,0,0,0,0
Ԓ˓X,sԒ˂Q[P[PSRvUPe,35.7704150378,139.645401811,1,0,0,0,1,0,0,0,0,0
kX,s擌P[RU[P,35.7701955343,139.870291585,1,1,0,1,1,0,0,0,1,0
OX,s]OP[W[W,35.6730922274,139.795064112,1,0,0,0,1,0,0,0,0,0
փECOX,s`捂ւS[PO[PWEBOւPe,35.6287187291,139.737178029,1,0,0,0,1,0,0,0,0,0
cwOX,sVhnꉺX[W,35.7059842812,139.719527262,1,1,0,1,1,0,0,0,0,0
HX,sOsR[QT[W,35.6815288996,139.539341349,1,0,1,1,1,0,0,1,0,1
֍uX,ss֌˂P[P[T,35.6512017908,139.446223824,0,0,0,1,1,0,0,0,0,1
V~RX,sRs݂P[PP[PW,35.7586400952,139.36806621,1,0,1,1,1,0,0,1,0,1
_CG[X,sqs򒬂PQQV[Sp[NnCc,35.6423829429,139.2841105,1,0,0,0,1,0,0,0,0,1
VX,s擌VQ[PP[T,35.7251718733,139.865827673,1,0,1,1,1,0,0,1,0,1
HX,sHs܃m_S[PQ[P,35.7597322446,139.31756187,1,1,1,1,1,0,1,1,1,1
쒬X,ss쒬Q[QOUQ[P,35.7323281536,139.465559774,1,0,1,0,1,0,0,0,0,1
JcX,s撆S[PP,35.7759902892,139.84411663,0,1,1,1,1,0,1,1,1,1
pC^[X,scJ搣cT[SP[P,35.6270406772,139.62602115,1,1,1,1,1,0,0,0,0,1
QO{X,s{sΒP[PT[P,35.6725951433,139.485513513,1,1,1,1,1,0,0,1,1,1
Oi[hiRX,ssiRP[SOi[hiRQe,35.6294229061,139.44808092,1,0,0,1,1,0,0,0,0,1
X,ss{򒬂SVP[P,35.7125662087,139.371003629,1,0,1,1,1,0,0,0,1,1
aJX,saJ_P[QR[PR,35.6601886647,139.700957345,1,1,0,1,1,0,0,0,0,0
QOzX,szszPuP[Q[P,35.6558527195,139.542832633,0,0,1,1,1,0,0,1,0,1
ےJVX,ssVU[W[PS,35.7126254342,139.530426977,1,0,1,1,1,0,0,1,0,1
vēX,svĎsOS[V[PW,35.7419850019,139.513370867,1,0,1,1,1,0,0,1,0,1
sPJX,sVhsPJcP[Q[QR,35.6925326097,139.73540923,1,0,0,1,1,0,0,0,0,0
RX,s`kRR[R[V,35.6685042188,139.715162749,1,1,0,1,1,0,0,0,0,0
BuX,snuT[P[Phl`̍LQ,35.759351396,139.62873923,1,0,0,0,1,0,1,0,1,1
r܂k`ahOX,sL擌r܂P[X[PO,35.7311199221,139.714351691,1,1,0,0,1,0,0,0,0,0
rܖkX,sL擌r܂P[SP[U,35.7315587213,139.712846246,1,0,0,1,1,0,0,0,0,0
O[p[NX,ssΒQ[P[SR,35.7148760957,139.564814791,1,0,1,1,1,0,0,0,0,1
kX,scJkQ[PQ[W˃r,35.6611068416,139.667733465,1,1,0,1,1,0,0,0,0,0
剪RX,sck瑩R[QW[PR,35.6069970137,139.685369686,0,1,0,1,1,0,0,0,0,0
zkX,szszcP[RU[W,35.6534541405,139.544320657,1,0,0,0,1,0,0,0,0,0
j[^EʂX,sscPQTV,35.6321988229,139.442070211,0,1,1,1,1,0,1,1,1,1
q茴X,sqs茴SVS,35.6812063799,139.306680367,1,0,1,1,1,0,0,0,1,1
qX,sqslQ[QO[Q,35.657328406,139.312916615,1,0,0,1,1,0,0,0,0,0
xmXΐ_X,snΐ_䒬V[PV[Q,35.7418236214,139.596421575,1,0,1,1,1,0,0,0,0,1
vĐX,sRshQ[Q[V,35.7503243405,139.471668256,1,0,0,0,1,0,0,0,0,0
T˓X,s]T˂T[Q[PT˂dwr,35.6982549418,139.825839653,1,1,0,0,1,0,0,0,0,0
LX,s`얃zT[PT[PSL}VPe,35.6509788967,139.722837244,1,0,0,0,1,0,0,0,0,0
qacX,sqsacS[QP[S,35.6669534082,139.35408772,1,0,1,1,1,0,0,0,0,1
͕ӓX,s~s㒬R[P,35.7886740223,139.287921305,1,1,1,1,1,0,0,0,0,1
哇_CG[X,s]哇V[RW[RO哇_CG[Pe,35.6907606851,139.842827402,1,0,0,0,1,0,0,0,0,1
RX,sRs{Q[R[Q,35.7602519866,139.467071584,1,0,1,1,1,0,0,0,1,1
~X֒X,sn֒kQ[R[QO,35.7232084883,139.575199684,1,0,1,1,1,0,0,0,0,1
QO㐅X,s扺˂Q[X[T,35.6687881659,139.635242587,1,1,1,1,1,0,1,0,0,1
wX,scJP[S[PT^raP,35.6328392926,139.661125713,1,1,0,1,1,0,0,0,0,0
kX,s]ː搼P[QT[PW,35.7340573952,139.881133793,0,0,0,1,1,0,0,0,0,0
V~䑐X,s䑐Q[PX[PS,35.7274008913,139.620551488,1,1,1,1,1,0,0,0,0,1
Z^[X,ssP[PSSOȕpeBI,35.6232569156,139.426392457,1,0,0,1,1,0,0,0,1,0
aX,scXkU[PR[PP}XgA,35.5787495615,139.734701626,1,0,0,0,1,0,0,0,0,0
aJfvUX,saJaJP[QS[PQaJfvUQe,35.6599065057,139.702136978,1,1,0,1,1,0,0,0,0,0
RX,saJ_{OT[TQ[QRI[oraPe,35.6626555515,139.709202934,1,0,0,1,1,0,0,0,0,0
~XVX,s~sVW[RO[T,35.783239556,139.31634187,1,0,1,1,1,0,0,1,0,1
쉎XzX,sqszPO[PP,35.6288527855,139.388628509,0,0,1,0,1,0,0,1,1,1
iqVhX,sVhVhS[P[PR,35.6892515423,139.702424665,1,1,0,1,1,0,0,0,0,0
RX,scJ攪RR[RX[PO,35.669280866,139.6135583,1,1,1,1,1,0,0,0,0,1
ߐX,scs呠PXR[P,35.5837645273,139.47238983,1,0,1,0,1,0,0,0,0,1
yX,stP[Q[R,35.7072680478,139.751518658,1,0,0,1,1,0,0,0,0,0
SVX,sڍSVQ[PQ[PX,35.6373154341,139.691588779,1,0,0,0,1,0,0,0,0,0
吙X,s]ː吙S[R[U,35.7096265026,139.879960713,1,1,1,0,1,0,0,0,0,1
c[wOX,skc[P[QP[W,35.7379495472,139.760233349,1,1,0,0,1,0,0,0,0,0
X,s]ː敽S[PQ[P,35.7064611517,139.843254789,1,0,0,0,1,0,0,0,0,0
HÉwOX,sRsHÒT[W,35.7781757468,139.496523631,1,0,0,0,1,0,0,0,0,0
ƂイX,ssHP[PV[P,35.7305439162,139.287618368,0,0,0,0,0,0,0,0,0,1
ێqX,sc扺ێqR[U[V,35.5710124662,139.685954684,1,0,0,0,1,0,0,0,0,0
uX,s揬Q[PW[Ut@CR[gu,35.7762073851,139.695282887,1,1,0,0,1,0,0,0,0,0
|̒ˉwOX,s|̒˂U[T[R|̒ˉwOXXPOX,35.7940612905,139.791733962,0,1,0,0,1,0,0,0,0,0
l`X,s{l`Q[R[P,35.6849953058,139.78370432,1,1,0,0,1,0,0,0,0,0
sX,ssPOOP[P,35.6610445293,139.413239021,1,0,0,0,1,0,0,0,1,0
ՑwOX,sՑP[Q[Q,35.7593088716,139.690011794,1,0,0,0,1,0,0,0,1,0
ڍsOX,si搼ܔcT[P[QO,35.6258417766,139.714334528,1,1,0,1,1,0,0,0,0,0
|ʂIX,sIS[PW[PW,35.786647536,139.786301113,1,0,1,0,1,0,0,0,0,1
VhX,sVh搼VhP[PV[P,35.6892894811,139.698216133,1,1,0,1,1,0,0,0,0,0
wOX,skV[Q[U,35.7456595593,139.720505861,1,1,0,0,1,0,0,0,0,0
Z^[X,ssP[PO[Q,35.6250744179,139.423723446,0,1,0,0,1,0,0,0,0,0
awOX,snkU[RQ[RU,35.7583724239,139.652686397,1,0,0,1,1,0,0,0,0,0
Om֓X,s䓌OmւP[QW[PQ,35.7296666048,139.791839886,1,1,0,1,1,0,0,0,0,0
_cLX,scO_cT[Q[P,35.7038614834,139.772142321,1,0,0,0,1,0,0,0,0,0
X,sT[RP[PQ,35.7195831794,139.652451865,1,1,0,0,1,0,0,0,0,0
JkX,s䓌捪݂P[U[U,35.7227311807,139.777957734,0,1,0,0,1,0,0,0,0,0
ڍwOX,siQ[PT[PV,35.6341645163,139.716777043,1,1,0,1,1,0,0,0,0,0
xVOaX,sqsʏQ[PxVZ^[ƃr,35.6239542037,139.400362981,0,0,0,0,0,0,0,0,0,0
`X,si撆T[Q[W,35.6036185393,139.707505719,1,0,0,0,1,0,0,0,0,0
qqX,sqsqUU[PP,35.6638013196,139.366695103,1,0,0,0,0,0,0,0,0,1
JS[fZ^[X,saJ攦JP[R[PS[fZ^[aP,35.6769261289,139.676562081,0,0,0,0,1,0,0,0,0,0
PuOaX,ssPuU[V[T,35.6609543347,139.363525764,0,0,0,0,0,0,0,0,0,1
cOaX,scsXS[P[Q,35.5261355565,139.465549084,0,0,0,0,0,0,0,0,0,1
V{OVeBGA^[~i,s{蒬SQ[P,35.6820629675,139.787791313,1,0,0,1,1,0,0,0,0,1
s[RbNXgAX,ssxmS[R[Q,35.6874026349,139.432971012,0,0,0,0,0,0,0,0,0,1
s[RbNXgAX,sn捂P[V[P,35.7412708922,139.616731812,0,0,0,0,1,0,0,0,0,0
vă}tWX,svĎsKT[R[QP,35.7596286686,139.517203444,0,0,0,0,0,0,0,0,0,1
uOړX,suR[QR,35.777576719,139.686539687,1,0,0,0,1,0,0,0,0,0
nwOX,snLʖkT[PW[X,35.7371359662,139.654067689,1,0,0,1,1,0,0,0,0,0
wkX,s搬R[PR[P,35.7786998707,139.632539795,0,0,0,0,1,0,0,0,0,0
wOX,s捂W[T[V,35.7892425223,139.661913814,1,1,0,0,1,0,0,0,0,0
}tWX,ssP[X[W,35.7460525821,139.334886212,0,0,0,0,0,0,0,0,0,1
ԏMnwOX,sMnP[PQ[PQ,35.7916608208,139.691572302,1,0,0,0,1,0,0,0,0,0
X,s{P[RQ[Sn[j[EBOPe,35.6966938075,139.683418483,1,1,0,0,1,0,0,0,0,0
ԒX,s您ԒP[PX[QO,35.7478713987,139.839887292,1,0,0,1,1,0,0,0,0,0
HtaʂX,sc_cvԒP[QP,35.6979247342,139.775217854,1,0,0,0,1,0,0,0,0,0
~uwOX,scJ~uP[QS[PO,35.6557398348,139.65314492,1,0,0,0,1,0,0,0,0,0
kX,s䓌S[R[PO,35.7081888166,139.773740622,1,1,0,1,1,0,0,0,0,0
s[RbNXgAX,ssQ[QR[QR,35.7012153821,139.521868162,0,0,0,0,0,0,0,0,0,1
X,snc擌T[R[S,35.7251795239,139.819709366,1,0,0,0,1,0,0,0,0,0
wOX,sqsQ[QX,35.6139339661,139.380173988,1,0,0,1,1,0,0,0,1,0
iX,scikP[Q[QOh]i,35.6958207406,139.752070183,1,0,0,1,1,0,0,0,0,0
Cg[[Jh[X,sՑS[QU[P,35.7640863466,139.67805623,1,0,0,0,0,0,0,0,0,1
ъwOX,scsݒPOPP[V,35.5793563749,139.407961046,1,0,1,0,1,0,0,0,0,1
OX,scJ揼Q[SS[U,35.6691315716,139.649830777,1,1,0,0,1,0,0,0,0,0
gMX,snc擌Q[RO[U,35.7182749762,139.817942017,1,0,0,0,1,0,0,0,0,0
X,s]ː搼R[PU[PR,35.6654522935,139.858770957,1,0,0,1,1,0,0,0,0,0
VX,s撆S[S[U,35.697642739,139.668208349,1,1,0,0,1,0,0,0,0,0
XX,scXR[QO[PR,35.5722524215,139.731224403,1,1,0,0,1,0,0,0,0,0
HX,sOsT[V[U,35.6824693213,139.580057012,1,0,1,0,1,0,0,0,0,1
_ےX,sc_c_ےP[Q[P,35.6962481337,139.760256137,1,1,0,1,1,0,0,0,0,0
VhwOX,sVh搼VhU[Q[PX,35.6937513724,139.694239903,1,1,0,0,1,0,0,0,0,0
VX,scJVQ[X[R,35.6317417411,139.644124702,1,0,0,0,1,0,0,0,0,0
񒚖ڃrX,sQ[X[S,35.6724301922,139.768121426,1,1,0,1,1,0,0,0,0,0
VJX,s`VQ[U[V,35.667568785,139.757359479,1,1,0,1,1,0,0,0,0,0
OX,s撇hUS[S,35.7520960647,139.710445902,1,1,0,0,1,0,0,0,0,0
VhwOX,sVhVhU[QX[PO,35.6976893435,139.707682491,1,1,0,0,1,0,0,0,0,0
wOX,s]ː蒬V[QW[Q,35.7065649888,139.903855198,1,1,0,0,1,0,0,0,0,0
OcwOX,s`łT[RP[QSقPe,35.646765535,139.745625755,1,0,0,0,1,0,0,0,0,0
哇X,s]哇U[X[P,35.6900577811,139.835169747,1,0,0,0,1,0,0,0,0,0
쏬X,ss쓌Q[PP[V,35.7201939848,139.319529387,1,0,1,0,1,0,0,0,1,1
kX,ssP[Q[QU,35.7025641713,139.54472255,0,0,0,1,1,0,0,0,0,0
zwOX,s]擌zS[S[T,35.6699245629,139.817106257,1,1,0,1,1,0,0,0,0,0
~wOX,s~cV[RU[T,35.7723866705,139.797672111,1,0,0,1,1,0,0,0,0,0
{{hX,s{s{hS[QS[S,35.6800566637,139.459371276,0,0,0,0,0,0,0,0,0,0
wOX,s挎P[R[Phjlr,35.6650186671,139.783768173,1,0,0,0,1,0,0,0,0,0
]}VFX,s]saP[Q[Q,35.6327345914,139.577977509,1,0,0,0,1,0,0,0,0,0
llړX,s掭lS[QX[U,35.7832080742,139.760845083,1,0,1,1,1,0,0,0,0,1
ЖwX,sqsБqPSOS[P,35.6262484434,139.339350592,0,0,0,1,0,0,0,0,0,0
VkX,s搼VP[Q[W,35.7172411547,139.857538697,0,0,0,1,1,0,0,0,0,0
rK勴X,sڍ勴Q[QQ[W,35.6517544956,139.686098112,1,0,0,0,1,0,0,0,0,0
쑽}VFX,scJ쑽X[Q[RR,35.6367732891,139.58789456,0,0,0,0,1,0,0,0,0,0
nX,s擿ۂQ[R[Q,35.7690803303,139.661109138,1,0,0,0,1,0,0,0,0,0
iC^[VeBX,s``Q[PT[Q,35.6262410794,139.741936891,0,0,0,0,1,0,0,0,0,0
ڒʂ荂X,sn捂T[X[U,35.7567423134,139.620867505,1,1,1,0,1,0,0,0,1,1
TLX,sTLR[RO[T,35.7658343285,139.848485281,0,0,0,0,1,0,0,0,0,0
V~X,s捂~Q[QO[R,35.6979432697,139.647726468,1,0,0,0,1,0,0,0,0,0
cA}XNGAX,sc抗cT[RV[PjbZCA}XNGAPe,35.5608602955,139.71803931,1,0,0,0,1,0,0,0,0,0
ʐ㐅X,ssKU[RU[P,35.7320491465,139.41807828,1,0,0,0,1,0,0,0,0,0
fbNXX,s`P[U[P,35.6284556084,139.775232309,1,1,0,1,1,0,0,0,0,1
PX,sS䒬厚PPQUW[P,35.7769247078,139.337069795,1,0,1,0,1,0,0,0,1,1
QOqؒX,sqsؒPX[P,35.6509087828,139.299757715,1,0,1,0,1,0,0,0,0,1
văCg[[Jh[X,svĎs{R[W[P,35.7590818268,139.529174946,1,0,0,1,0,0,0,0,0,1
X,sVh㗎Q[QX[Q,35.7105695102,139.685056398,1,1,0,0,1,0,0,0,0,0
X,s]ː擌U[Q[T,35.6626224474,139.873361223,1,1,0,1,1,0,0,0,0,0
OX,sOsAR[RT[VNbZgOaPe,35.7012011435,139.560867341,1,0,0,1,1,0,0,0,0,0
vʂ]kX,s]kP[QP[PQ,35.7697070708,139.770263994,1,0,1,0,1,0,0,0,0,1
wOX,ssP[RR[R,35.6792519346,139.392811706,0,0,0,1,1,0,0,0,1,0
䪉גJwOX,s揬ΐT[T[U,35.7179350677,139.736952245,1,1,0,0,1,0,0,0,0,0
ꋞlLFX,si擌P[Q[QO,35.6054259384,139.742590446,1,1,1,0,1,0,0,0,0,1
wkX,ssP[Q[V,35.7721112428,139.520737365,1,0,0,0,1,0,0,0,0,0
wX,ssč蒬R[V[P,35.6969751845,139.412709025,1,1,0,1,1,0,0,0,0,0
V]wOX,s]ːV]W[PU[PP,35.6863186642,139.883478299,1,0,0,0,1,0,0,0,0,0
gGX,s捂X[QR[P,35.7900483759,139.66607176,1,0,0,1,0,0,0,0,0,1
RwOX,s攒RT[RR[PU,35.7222127763,139.752374095,1,1,0,0,1,0,0,0,0,0
OxʂX,syP[P[PVsj[d`rsr,35.7023461872,139.754698864,1,1,0,1,1,0,0,0,0,0
qCg[[Jh[X,sqsԒPSUQ[P,35.6381272861,139.293657631,0,0,0,1,0,0,1,0,1,1
咹X,sc攋R[Q[U,35.5525714109,139.735357338,1,1,1,0,1,0,0,0,1,1
|̒˃Cg[[Jh[X,s|̒˂T[PV[P,35.7956153731,139.795129722,0,0,0,0,0,0,0,0,0,0
IsbNX,sskR[RX[P,35.7000391545,139.428807252,0,0,0,0,0,0,0,0,0,1
쒷X,sVh搼R[P[P,35.7227103298,139.683762409,1,1,0,0,1,0,0,0,0,0
VhXorX,sVh搼VhP[V[Q,35.6915128335,139.697902737,1,0,0,1,1,0,0,0,0,0
ۖ؊ԓX,sۖ؊ԂR[RR[PQ,35.7950549926,139.809640733,1,1,1,0,1,0,0,0,0,1
Lp[NrX,s]LR[V[PPLp[NrPe,35.6325067283,139.792609561,1,0,0,1,1,0,0,0,0,0
AIX,s]ː擌X[R[RAIXPKt[hR[g,35.6521563444,139.881564559,0,0,0,1,0,0,0,0,0,1
twOX,s{S[QS[Wt^[PK,35.7107743694,139.753380303,1,1,0,0,1,0,0,0,0,0
cwOX,sscS[QW[PT,35.7286705356,139.539610275,1,0,0,1,1,0,0,0,0,0
kFOX,s擌aT[PQ[PR,35.7758967605,139.836449229,0,0,0,0,1,0,0,0,0,0
u؊XHÓX,sRsHÒQ[P[P,35.7721233377,139.484704604,0,0,1,0,1,0,0,0,0,1
V_X,ssV_R[U[W,35.7309283648,139.498915319,1,0,1,0,1,0,0,1,1,1
ʂ≺X,ssш쒬Q[U[QQ,35.6945224423,139.497826311,1,0,1,0,1,0,0,0,1,1
ܓsXkX,sskR[QS[S,35.7178589909,139.446069514,0,0,1,0,1,0,0,0,0,1
cnwOX,sVh捂cnQ[PW[PP,35.7137335711,139.704837922,0,0,0,0,1,0,0,0,0,0
ۂ̓ۃraOX,scۂ̓R[P[P,35.6770347655,139.761160721,1,0,0,0,1,0,0,0,0,0
LyraOX,scLyP[PO[P,35.6750144546,139.761805747,1,0,0,1,1,0,0,0,0,0
rwOX,scrU[P[QP,35.5726583134,139.703859209,1,0,0,0,1,0,0,0,0,0
ܓsX약X,ss약P[PO[QS,35.7151507147,139.489007072,1,0,1,0,1,0,0,0,0,1
ΐ_wOX,snΐ_S[P[PR,35.7267785155,139.591327334,0,0,0,0,1,0,0,0,0,0
JwOX,sc搼JS[PR[PV,35.5544085636,139.730073824,1,0,0,0,1,0,0,0,0,0
cwOX,sZR[P,35.7443135377,139.811501514,1,0,0,0,1,0,0,0,0,0
ˉzX,si敽˂P[U[QP,35.6156162973,139.715717042,1,0,0,0,1,0,0,0,0,0
{ᏼT~bgX,s{sᏼQ[PR[P,35.6708348748,139.499313241,1,0,0,0,0,0,0,0,0,1
꓌OX,sڍQ[P[U,35.6587739038,139.683129194,1,0,0,0,1,0,0,0,0,0
闢wOX,sr搼闢T[PS[P,35.7325998,139.767911523,1,1,0,1,1,0,0,0,0,0
wX,sLP[RW[Q,35.7359752688,139.74775199,1,0,0,0,1,0,0,0,0,0
̃}GcX,szs̒R[P[RW,35.6494016408,139.558507667,0,0,0,1,1,0,0,0,0,1
XwkX,scRQ[P[T,35.5899947954,139.72839699,1,1,0,1,1,0,0,0,0,0
wX,snc旼Q[PR[U,35.6957637498,139.791614604,1,0,0,0,1,0,0,0,0,0
UX,sVhS[QR[PO,35.7628636775,139.863495515,0,1,1,1,1,0,0,0,0,1
kԉHwOX,skԉHkQ[RP[PU,35.786147438,139.707998904,1,0,0,0,1,0,0,0,0,0
aJVX,saJaJR[QW[W,35.6560492208,139.704330835,1,0,0,0,1,0,0,0,0,0
X͓X,scJ擙X͂P[RQ[PR,35.6042358203,139.649753377,1,0,1,0,1,0,0,0,0,1
{͌wOX,s{sВQ[QP[X,35.6687467994,139.468766204,1,0,0,0,1,0,0,0,0,0
XX,ssۂUXO[V,35.6451766065,139.497456088,1,0,1,0,1,0,1,0,0,1
גwOX,s䓌擌R[RR[PP,35.7110931728,139.782660303,1,0,0,0,1,0,0,0,0,0
ɐOOX,ssQ[U[S,35.6992607827,139.413568861,1,0,0,1,1,0,0,0,0,0
cwOX,szscP[SP[T,35.6605455753,139.523852395,1,0,0,0,1,0,0,0,0,0
X,s]ː擌T[PX[PO,35.6669645431,139.876500226,1,1,1,0,1,0,0,0,0,1
ewOX,snceQ[U[PP,35.6885827172,139.805851739,1,0,0,0,1,0,0,0,0,0
lJʂ{X,s{sVQ[RR[R,35.6705793968,139.448812832,1,0,1,0,1,0,0,0,0,1
ʂVhXepX,sVhˎRR[PU[T,35.7050449374,139.708940422,1,1,1,1,1,0,0,0,0,1
X,saJ{P[S[PQ,35.6818130338,139.685296975,1,0,0,0,1,0,0,0,0,0
LʓX,snLʓR[U[P,35.7265174292,139.653628708,1,1,1,0,1,0,0,0,1,1
CI썻X,s]썻U[V[PT,35.6720942664,139.835890409,1,0,0,0,1,0,0,0,0,1
؏Cg[[Jh[X,s]؏P[T[RO,35.6660185534,139.804483041,1,0,0,1,0,0,0,0,1,1
PS]X,s]ː搐]P[PO[R,35.7016824823,139.893497663,1,1,1,0,1,0,0,0,1,1
ncԃIsbNX,snc敶ԂP[RP[PX,35.707149435,139.823560044,0,0,0,0,0,0,0,0,0,1
_wOX,ssP[U[P,35.7085698363,139.375571732,1,0,0,0,1,0,0,0,0,0
l؃Cg[[Jh[X,sl؂Q[QP[PCg[Jh[lؓXPe,35.7375500266,139.838601985,1,0,0,0,1,0,0,0,0,1
XwOX,snXR[RV[W,35.749770132,139.665758408,1,0,0,0,1,0,0,0,0,0
ŉYV[oXX,s`ŉYP[Q[Q,35.6495491216,139.756431115,0,0,0,0,1,0,0,0,0,0
ˉzX,siˉzU[U[U,35.6085038143,139.717596056,1,1,0,0,1,0,0,0,0,0
{͌CtX,s{sZgP[WS[P,35.6601488817,139.458360211,0,0,0,0,0,0,0,0,0,1
OwOX,s䓌摠OQ[U[U,35.7037336918,139.791838153,1,0,0,0,1,0,0,0,0,0
qFÖؑX,sqsvێRP[X[PTV,35.6883644768,139.359797493,1,0,1,0,1,0,0,1,1,1
z\ԓX,s`斃z\ԂPڂPPԂPQ,35.6557503837,139.736222304,1,1,0,0,1,0,0,0,0,0
kZX,sZQ[UQ,35.7494311011,139.804288587,1,1,0,0,1,0,0,0,0,0
ʂ쑽X,scJ쑽T[QU[QR,35.6303554557,139.60040403,0,0,1,0,1,0,1,1,1,1
}cwOX,sc搼cW[Q[U,35.5610621331,139.714880125,1,1,0,1,1,0,0,0,0,0
̓ʂ荂˓X,s捂˓S[Q[S,35.6870549105,139.621580517,1,1,1,0,1,0,1,1,1,1
TVCVeB`ks`X,sL擌r܂R[P[RTVCVeCA^,35.7287644978,139.719723552,1,0,0,1,1,0,0,0,0,1
烖}tWX,s~sPR[SOO,35.7855969488,139.26990769,0,0,0,0,0,0,0,0,0,1
OʂkX,s]ːkR[P[QP,35.7376830448,139.889486827,1,0,1,0,1,0,0,0,0,1
CtX,s搅Q[PP[PQ,35.7870963196,139.856666503,1,0,0,0,1,0,0,0,0,1
Xx|[gX,siU[QU[QXx|[gbقQe,35.5883722819,139.731464294,1,0,0,1,1,0,0,0,0,0
ʂvX,sk揺aP[P[PT,35.7459652102,139.756481123,1,0,1,0,1,0,0,0,1,1
X,scsRuR[QQ[P,35.6025538574,139.369566177,1,0,1,0,1,0,0,0,1,1
юAJLbgX,sncюQ[Q[P,35.6975096593,139.812168344,1,0,0,1,0,0,0,0,0,1
Dx_CG[X,s]ːDxP[P[TP,35.684746328,139.862280716,0,0,0,1,0,0,0,0,0,1
wOX,sL搼R[QS[TGNZ{,35.7432686608,139.728758866,1,0,0,0,1,0,0,0,0,0
wOX,sHsP[PT[Q,35.776335534,139.302832744,1,0,0,0,1,0,0,0,0,0
CIiV[TChX,si擌iS[PQ[T,35.6111549043,139.748804412,1,0,0,1,0,0,0,0,0,1
Jb^X,s`擌VP[W[Q[aQPSP,35.6645442409,139.761678123,1,0,0,0,1,0,0,0,0,1
LFwOX,s]LFS[P[S,35.6546890829,139.797391042,1,0,0,0,1,0,0,0,0,0
ߐ^X,scs^R[RP[S,35.6002227973,139.466573283,0,0,1,0,1,0,0,0,0,1
ΑDwOX,scJDP[X[P,35.6474796953,139.6234175,0,1,0,0,1,0,0,0,0,0
wOX,sL쒷T[QT[PR,35.7297617346,139.682912198,1,0,0,0,1,0,0,0,0,0
wOX,snP[T[P,35.7387412697,139.661806133,1,0,0,0,1,0,0,0,0,0
UErbOX,ss{򒬂TOO[P,35.7164841455,139.372729715,0,0,0,0,0,0,0,0,0,1
wOX,si搼P[P[Q[POP,35.6013522397,139.722127346,1,0,0,1,1,0,0,0,0,0
qCg[[Jh[X,ssR[Q[PQ,35.7157541246,139.347851867,0,0,0,1,0,0,0,0,0,1
CI_X,s]擌_P[X[PO,35.6491023453,139.802394731,0,0,0,1,0,0,0,0,0,1
Z~fBXX,sZR[XQ,35.7510523126,139.804484338,0,0,0,1,0,0,0,0,0,1
aCg[[Jh[X,sasuQ[PSQ[P,35.7359438682,139.424157328,1,0,0,1,0,0,0,0,0,1
q݂ȂݖOaX,sqs݂ȂݖP[W[P,35.6317117027,139.328324372,1,0,0,1,1,0,0,0,1,1
X,sn撆kR[QQ[X,35.7360276225,139.638595439,1,1,0,1,1,0,0,1,0,0
wOX,ssR[S[P,35.7281398639,139.564294304,1,0,0,0,1,0,0,0,0,0
󑐃bNXX,s䓌󑐂P[QS[P,35.712319702,139.793054371,1,1,0,0,1,0,0,0,0,0
z[YX,s]ː擌X[R[U,35.653523465,139.883508229,0,0,0,1,0,0,0,0,0,1
̃Cg[[Jh[X,szs̒W[Q[US,35.6470848316,139.564227551,0,0,0,1,0,0,0,0,0,1
XCg[[Jh[X,scXkQ[PR[P,35.5868166589,139.732791744,1,0,0,1,0,0,0,0,0,1
ԏwOX,ssԏP[W[R,35.7267317359,139.513864768,0,0,0,0,1,0,0,0,0,1
CggX,s搰CP[W[PUCggP[QER,35.6575836135,139.781637541,1,0,0,0,1,0,0,0,0,1
ԍwOX,s`ԍT[S[T,35.6723212981,139.7362958,1,1,0,1,1,0,0,0,0,0
TLAIX,sTLR[SX[R,35.7639976994,139.852522512,0,0,0,1,0,0,0,0,0,1
юIiXX,snc摾S[P[TIiXRAaPe,35.7005572166,139.816743666,1,0,0,1,0,0,0,0,0,1
ܔwOX,s撆{Q[QV[PR,35.7664165377,139.809058051,1,0,0,0,1,0,0,0,0,0
CYX,sP[QCYR,35.6753467385,139.765509586,1,0,0,1,1,0,0,0,0,0
CI[ނRX,sRs|P[P[R[ROQR,35.7463963878,139.385615755,0,0,0,1,0,0,0,0,0,1
WCt{cX,sS䒬厚aPJSSQ,35.7603485152,139.357659253,0,0,0,1,0,0,0,0,0,1
cX,scsQ[PW,35.5529172455,139.443836261,1,1,1,1,1,0,0,0,0,1
[񂤂[X,sqsʏQ[TU,35.6118226979,139.396750992,1,0,0,1,0,0,0,0,1,1
iqHtX,sc_cvԒP[U[PRʘH,35.69811049,139.773105526,1,0,0,0,1,0,0,0,0,0
Q[gVeBX,siP[PP[PQ[gVeBvU,35.6192093725,139.731603049,1,0,0,0,1,0,0,0,0,0
kX,sqsk쒬TST[R,35.6455272284,139.354630191,0,0,0,1,1,0,0,0,0,1
HtwOX,sc_cPԒn,35.6992181616,139.7737957,1,1,0,1,1,0,0,0,0,0
RTVՊCX,s]ːՊCU[R[S,35.6446530179,139.860699408,0,0,1,0,1,0,0,0,0,0
rbNJ`jha`X,scO_cS[P[P,35.699769436,139.771838345,1,0,0,1,1,0,0,0,0,0
VAIX,s搼VhP[QO,35.7744394482,139.7855825,0,0,0,0,0,0,0,0,0,1
CI[̏oX,sS̏o厚䎚Og؂QRV[R,35.7352508286,139.27499676,0,0,0,1,0,0,0,0,0,1
Hc`PrwX,scHc`R[R[QPq^[~iaPe,35.5492708673,139.784406088,0,0,0,0,1,0,0,0,0,1
ZwX,srZS[T[P,35.7332380639,139.799103292,1,0,0,1,1,0,0,0,0,0
X,ss{U[PS[QWANEF[POP,35.7007891719,139.505880652,1,0,0,1,1,0,0,0,0,1
闢wOX,sr搼闢Q[PW[VOF闢wOr,35.7288839298,139.771649689,1,1,0,1,1,0,0,0,0,0
U˓X,s˂S[PR[U,35.750612445,139.848971966,1,0,1,0,1,0,0,0,0,1
qX,sqs_R[QV[PqrbQe,35.6578499774,139.343075132,1,0,0,1,1,0,0,0,1,0
ZX,sԔP[Q[P,35.7867665468,139.822386374,1,0,1,0,1,0,0,0,0,1
VhX,sVh搼VhT[X[W,35.6910159261,139.686794535,1,1,0,1,1,0,0,0,0,1
kAIX,s]kQ[PV[PAIkPKt[hR[g,35.6825739512,139.826672158,1,0,0,1,0,0,0,0,0,1
qʐ색CYX,scJʐQ[QP[PCYVbsOZ^[,35.6119813118,139.627914646,1,1,0,1,1,0,0,0,0,0
Hc`QrwX,scHc`R[S[QQq^[~iaPe,35.5507005396,139.788554013,1,0,0,0,1,0,0,0,0,0
Z{؃qYX,s`Z{؂U[R[P,35.6609812517,139.728365262,1,1,0,1,1,1,0,0,0,0
owOX,scJoP[QO[P,35.6509954882,139.636764002,1,1,0,1,1,0,0,0,0,0
ԉHAsX,skԉHP[T[P,35.7775331875,139.720462636,1,0,0,1,1,0,0,0,1,0
aX,sasU[PPOS,35.7473592445,139.445007315,1,0,1,1,1,0,0,0,0,1
XJCc[^EE\}`,snc扟P[P[QXJCc[^EE\}`Se,35.7098756819,139.80898756,1,0,0,0,1,0,0,0,0,0
iqwX,scۂ̓P[X[PwԊX,35.6797040852,139.767730056,1,0,0,1,1,0,0,0,0,0
_Co[VeBvUX,s]CP[P[PO,35.625710381,139.775953469,1,0,0,1,0,0,0,0,0,1
ˊXX,s扜˂Q[RU[PR,35.7352789826,139.862617538,1,0,1,1,1,0,0,0,1,1
썻X,s]VR[R[TQ,35.6677543612,139.83157095,1,1,1,1,1,1,0,0,1,1
Zgp[NX,s撆S[PO[QZgp[NTEXPe,35.707283416,139.661419651,1,0,0,1,1,0,0,0,0,0
PrX,scrQ[U[PQ,35.5796091267,139.701170271,1,1,1,1,1,1,1,1,1,1
엧X,ss򒬂WSP[PSQ,35.7151789118,139.421225351,1,0,1,1,1,1,0,0,0,1
bwOX,saJbP[PO[PO,35.6470678972,139.710529557,1,1,0,1,1,1,0,0,0,0
ncX,sncR[PO[PP,35.7566610912,139.63716751,1,1,1,1,1,1,1,0,1,1
CI[vēX,svĎsT[PV[UQ,35.7455341608,139.528121967,1,0,0,1,0,0,0,0,0,1
VhwOX,sVh̕꒬P[QS[P,35.6942301004,139.700637673,1,1,0,1,1,0,0,0,0,0
|e|^ZX,sZ˒P[PR,35.7422780814,139.796293721,1,0,0,1,1,0,0,0,1,0
]ÓcwOX,sn戮uP[VU[W,35.737125076,139.672688883,1,1,0,1,1,0,0,0,1,0
\wOX,sk\Q[RO[Q,35.7609031506,139.721685424,1,0,0,0,1,0,0,0,0,0
X,ss{R[P[P,35.7006229612,139.480519209,0,0,0,1,1,0,0,0,0,0
{X,s{s{P[POOEV[jPQS,35.6714970486,139.479374913,1,1,0,1,1,0,0,0,0,1
{ؓX,_ސ쌧؎sQ[S[PU,35.4405553054,139.364786585,0,0,0,1,1,0,0,0,0,0
ɐؒX,_ސ쌧lsɐؒR[POS,35.4423471009,139.629762063,1,1,0,1,1,0,0,0,0,0
tX,_ސ쌧s{OP[P,35.5787027833,139.573697803,1,0,0,1,1,0,0,0,0,0
]̓X,_ސ쌧sC݂P[PP,35.3161990642,139.472824785,1,1,1,1,1,0,0,1,0,1
aX,_ސ쌧asaP[R[PT,35.4704033959,139.461869377,0,1,0,1,1,0,0,0,0,0
X,_ސ쌧sR[Q,35.3318952722,139.406176771,1,0,0,1,1,0,0,0,0,0
DX,_ސ쌧qsDP[X[Q,35.3530670382,139.531908604,1,0,0,0,1,0,0,0,0,0
PU͌X,_ސ쌧͌sxmR[V,35.5685969191,139.382676681,1,1,1,1,1,1,0,1,1,1
X,_ސ쌧s쓡R[T[POP,35.3379939893,139.489041721,1,0,0,0,1,0,0,0,0,0
`쒆X,_ސ쌧ls``쒆ʂW[RT,35.3998174717,139.589278287,1,1,1,1,1,0,1,1,1,1
tX,_ސ쌧lsttQ[TAbNXt,35.5429680581,139.516203277,0,0,0,0,1,0,0,0,0,0
gwOX,_ސ쌧ls`kg{P[QQ[P,35.5531931402,139.646400696,1,1,0,1,1,0,0,0,0,0
iJCg[[Jh[X,_ސ쌧ls`ێRP[PQ[PQ,35.4005727658,139.572088049,1,0,0,0,1,0,0,0,0,0
VX,_ސ쌧sVR[Q[PU,35.5866072791,139.630019646,1,1,0,1,1,0,0,0,1,0
˒˃As^X,_ސ쌧ls˒ˋqcVUX[P,35.3994466931,139.537213274,1,0,0,0,1,0,0,0,0,1
a[X,_ސ쌧asaQ[S[V,35.4678565674,139.46593302,1,1,1,1,1,0,0,1,1,1
QSUؓX,_ސ쌧؎sQ[T[RV,35.4460897791,139.35788751,1,0,1,1,1,0,0,1,1,1
PUߊԓX,_ސ쌧͌sߊԖ{V[R[SP,35.5283150708,139.44594511,0,0,1,1,1,0,0,1,1,1
OYCݓX,_ސ쌧OYs쉺Y{cRRTO,35.1846683202,139.654867294,0,0,1,1,1,0,0,0,0,1
ɐX,_ސ쌧ɐsP[Q[R,35.3950443577,139.313651053,1,0,0,0,1,0,0,0,0,0
ъԉwX,_ސ쌧asъԂS[U[R,35.5072524127,139.444864646,1,1,0,1,1,0,0,0,0,0
X,_ސ쌧syITPQ[R,35.412338887,139.464701145,1,0,0,0,1,0,0,0,0,0
˒ˌhX,_ސ쌧ls˒ˋ挴hR[T[P,35.3784349237,139.507062493,1,1,1,1,1,0,0,1,1,1
kX,_ސ쌧sSUQ,35.3399192517,139.486115783,1,0,0,1,1,0,0,0,1,0
acX,_ސ쌧lsۓyPJacP[PT[R,35.4635974766,139.587263994,1,0,0,0,1,0,0,0,0,1
\sX,_ސ쌧ls΋\s꒬WUX[P,35.526199904,139.514657961,1,1,1,1,1,0,0,1,0,1
O}ʂX,_ސ쌧{s꒬Q[QP,35.2810442848,139.668815948,0,0,0,1,1,0,0,0,0,0
OtX,_ސ쌧{sOtQ[P[R,35.2677648114,139.685000934,0,1,1,1,1,0,1,1,1,1
ZX,_ސ쌧sTQ[QT[S,35.3814859675,139.475357009,1,1,1,1,1,0,0,1,1,1
{ꒆX,_ސ쌧{sᏼR[PW,35.2784496367,139.671131688,0,0,0,1,1,0,0,0,0,0
RX,_ސ쌧ls΋掛RWX,35.5139799969,139.539684929,1,1,0,1,1,0,0,0,1,0
ǎCg[[Jh[X,_ސ쌧sËv{R[U[QO,35.5990927136,139.615631482,1,0,0,0,1,0,0,0,0,1
X,_ސ쌧ls΋抛P[X[R؉r,35.5106122074,139.566888307,1,0,0,0,1,0,0,0,0,0
QSU`X,_ސ쌧`s钣T[RO,35.3753712513,139.206070145,1,1,1,1,1,0,0,1,0,1
ѐX,_ސ쌧csѐPP[P,35.2794730013,139.168696499,1,0,1,0,1,0,0,0,0,1
ߌX,_ސ쌧lsߌkQ[QO[QO,35.5161842181,139.666268537,1,1,1,1,1,0,0,0,0,1
ˎRX,_ސ쌧ˎsRPPOS,35.3351249922,139.314056972,0,1,1,1,1,0,0,1,1,1
{ꕐX,_ސ쌧{sS[P[V,35.2257118573,139.647222445,0,0,1,0,1,0,0,0,1,1
X,_ސ쌧lsۓyPJ搯Q[S[P,35.4585471203,139.594336372,1,0,0,0,1,0,0,0,0,0
lX,_ސ쌧lsKQ[PS[X,35.4639796215,139.61741892,1,1,0,1,1,0,0,0,1,0
PQXlV{X,_ސ쌧ˎslV{T[QW[P,35.3604830674,139.359884585,0,1,1,1,1,0,0,1,0,1
ߌwOX,_ސ쌧lsߌLR[QS,35.5076015246,139.674954253,1,0,0,1,1,0,0,0,0,0
c}VSuX,_ސ쌧s㖃P[QO[P,35.6034629649,139.507633548,1,0,0,0,1,0,0,0,0,0
ȓcX,_ސ쌧؎sȓcR[PU[PU,35.4650300714,139.354969792,1,0,1,0,1,0,0,0,1,1
xmʂX,_ސ쌧s擡P[S[PP,35.5297924424,139.719674854,1,1,1,1,1,0,0,0,0,1
ZgX,_ސ쌧s،Q[R[P,35.5649225949,139.654611199,1,0,0,1,1,0,0,0,0,0
RX,_ސ쌧͌s΋vۑQ[R[QR,35.5935883119,139.300075512,1,0,1,0,1,0,0,0,1,1
NX,_ސ쌧sËNWW[P,35.5721736777,139.621541497,1,1,1,1,1,0,0,0,0,1
`kj[^EX,_ސ쌧lss}抝PR[QR[PV,35.536584038,139.578475459,1,0,1,1,1,0,0,0,0,1
ғX,_ސ쌧sғC݂Q[P[PR,35.3258155739,139.444527087,0,0,1,1,1,0,0,0,1,1
PX,_ސ쌧S钬P[Q[RU,35.3196958841,139.324345033,0,0,1,0,1,0,0,0,0,1
PTVqX,_ސ쌧ls_ސqʂQ[QVS[Q,35.4854153893,139.653385575,1,1,1,0,1,0,0,0,1,1
JX,_ސ쌧SJgcPOPQ[Q,35.3309531206,139.128892057,1,1,1,1,1,0,0,1,1,1
jwOX,_ސ쌧ls`kjP[U[QP,35.5366863402,139.63424794,1,1,0,0,1,0,0,0,0,0
͌ÕX,_ސ쌧͌sÕU[R[PQ,35.5490815712,139.423005963,1,1,1,1,1,0,1,1,1,1
˒˓X,_ސ쌧ls˒ˋiZTSX[QOrPe,35.4310192586,139.558268298,1,0,0,1,1,0,0,0,1,0
QSUԓX,_ސ쌧ԎsR[R[V,35.4785942792,139.424990245,0,0,1,1,1,0,0,1,1,1
͌zX,_ސ쌧͌szU[S[PQ,35.5491459541,139.378871941,1,0,1,0,1,0,1,0,0,1
s}C^[X,_ސ쌧lss}摁R[RR[P,35.5515494312,139.604388774,1,0,1,1,1,0,0,0,0,1
`cX,_ސ쌧lst`cT[PW[PX,35.5427715224,139.551760539,1,1,1,1,1,0,0,0,0,1
{XcX,_ސ쌧s搶cQ[PT[P,35.6220325689,139.550585821,1,1,1,0,1,0,0,0,0,1
`kj[^EX,_ސ쌧lss}拍vۂQ[QP[PQ,35.5649013735,139.577186666,1,0,1,1,1,0,0,0,0,1
C^[X,_ސ쌧ls扺䒬PXV,35.484913008,139.519450299,0,0,1,0,1,0,0,0,1,1
ؔюRX,_ސ쌧؎sюRRPXR[P,35.4526255235,139.329657156,1,1,1,0,1,0,0,0,1,1
֓X,_ސ쌧lssVP[P[PP,35.4422087141,139.637641678,0,0,0,1,1,0,0,0,0,0
CI͌X,_ސ쌧͌sÕQ[PO[P,35.5535484106,139.41703935,0,0,0,1,1,0,0,0,0,1
\䐼FX,_ސ쌧ls搼ĂP[Q[PW,35.35558847,139.62839977,1,0,1,0,1,0,0,0,1,1
o˓X,_ސ쌧soːVSPT,35.6216342121,139.568928721,1,0,1,0,1,0,0,0,0,1
PQXRۓX,_ސ쌧؎sRۂTOT,35.4976127278,139.363029212,0,0,1,0,1,0,0,1,1,1
yJX,_ސ쌧lsyJPUP,35.4337417642,139.601534242,1,0,0,0,1,0,0,0,0,0
CVX,_ސ쌧CVsQ[R[X,35.4490773225,139.393404927,1,1,1,1,1,0,0,0,1,1
kwa@OX,_ސ쌧͌s斃aP[Q[PV,35.5367360956,139.394429718,1,0,1,0,1,0,0,0,0,1
]uj[PVbsOZ^,_ސ쌧ls撆]uPVV[P,35.4601755345,139.509813206,0,0,0,0,0,0,1,0,1,1
ÓƂイX,_ސ쌧s̑UXW[PO,35.3712376321,139.442117734,1,0,0,1,1,0,0,0,0,1
񖓐ARbgX,_ސ쌧ls񖓐P[SRARbg񖓐Qe,35.464975853,139.531766152,0,0,0,0,1,0,0,0,0,0
PX,_ސ쌧csR[P[V,35.2650192209,139.185152048,1,1,1,0,1,0,0,0,0,1
C^[X,_ސ쌧s{OyQ[PQ[U,35.5864008272,139.57450965,0,0,1,0,1,0,0,0,0,1
ywOX,_ސ쌧ls_ސ攒yPOO[T,35.489718384,139.62744205,1,0,0,0,1,0,0,0,0,0
c}͑wX,_ސ쌧͌s摊͑R[W[P,35.5321019297,139.437814541,0,0,0,0,1,0,0,0,0,1
ǕlwOX,_ސ쌧{sǕlR[X,35.3159770165,139.626019864,0,0,0,1,1,0,0,0,0,0
uVwOX,_ސ쌧so˂QVRV[T,35.6165529876,139.564032118,1,0,0,0,1,0,0,0,0,0
c}`wX,_ސ쌧`s`P[P,35.3702948361,139.225710337,0,0,0,0,1,0,0,0,0,0
}Tj[}[gX,_ސ쌧lsDTP[QT}Tj[}[gbقPe,35.3354589371,139.623702072,0,0,0,0,0,0,0,0,0,1
VeBIX,_ސ쌧{sP[RX[W,35.2160290136,139.687863555,0,0,0,0,0,0,0,0,0,1
cX,_ސ쌧s搛P[Q[S,35.6331292325,139.534778113,0,0,0,0,0,0,0,0,0,0
ltWX[p[X,_ސ쌧ls쑾cP[QP[U,35.4359457242,139.613568134,0,0,0,0,0,0,0,0,0,1
`a}bNXoX,_ސ쌧`sxPPX[P,35.3798738816,139.18793318,1,0,0,0,0,0,0,0,0,1
C^[X,_ސ쌧{sR[QO[RS,35.2379783006,139.680284447,0,0,1,0,1,0,0,0,0,1
RsIX,_ސ쌧bS쒬pcTWO,35.5330773091,139.330018126,0,0,0,1,0,0,0,0,0,1
Z^[wX,_ސ쌧lss}抝蒆P[P,35.5455381977,139.574296848,0,0,0,0,1,0,0,0,0,0
cE}bNXoX,_ސ쌧csESSV[P,35.2631282506,139.150427576,0,0,0,0,0,0,0,0,0,1
vlwOX,_ސ쌧{svlS[R[W,35.2312552063,139.702906131,0,0,0,0,1,0,0,0,0,0
c}PswOX,_ސ쌧sPsP[QW[Q,35.3626960719,139.473027667,0,0,0,0,1,0,0,0,0,0
VSukX,_ސ쌧s斜P[PV[P,35.604445351,139.507509909,1,0,0,0,1,0,0,0,0,1
͌wrX,_ސ쌧͌s摊͌P[P[R͌wrbdkdORe,35.5809613336,139.371185782,1,0,0,0,1,0,0,0,0,1
͌cX,_ސ쌧͌scSSWS,35.5532475222,139.340000924,1,0,1,0,1,0,0,0,0,1
ɐGACvUX,_ސ쌧ɐsv۔QR[Q,35.4022972462,139.296025602,0,0,0,1,0,0,0,0,0,1
JwOX,_ސ쌧lsJ撆P[U,35.4708269848,139.48386749,1,0,0,0,1,0,0,0,0,0
֓kX,_ސ쌧ls^R[RQV^Pr,35.445401639,139.635761433,1,1,0,1,1,0,0,0,0,0
RRsIX,_ސ쌧͌s΋挴hR[PO[P,35.5986565649,139.308166288,0,0,0,0,0,0,0,0,0,0
c}ǔhwOX,_ސ쌧s搼cR[X[QWZgrPe,35.6144222853,139.528543277,1,0,0,0,1,0,0,0,0,0
nxFX,_ސ쌧{snxC݂Q[QV[Q,35.2604003906,139.707237121,0,0,0,0,0,0,0,0,0,1
wOX,_ސ쌧lsߌU[V[PP,35.5384548665,139.680340069,1,0,0,0,1,0,0,0,0,0
˒ːvUX,_ސ쌧ls˒ˋ㒬WV[W˒ːvU,35.4310313943,139.555046349,1,0,0,0,1,0,0,0,0,1
Ó䐼X,_ސ쌧sÓQ[PO[V}[xXNGA,35.395812697,139.465026768,1,0,0,0,1,0,0,0,0,0
\Cg[[Jh[X,_ސ쌧ls\䓌R[P,35.3587250339,139.62731585,0,0,0,1,0,0,0,0,0,1
`Cg[[Jh[X,_ސ쌧s`PQ[P,35.5344719044,139.719221651,1,0,0,1,0,0,0,0,0,1
lTԊXX,_ސ쌧lsKP[T[WKr,35.4645379596,139.619965349,1,1,0,1,1,0,0,0,0,0
T~bgX,_ސ쌧sKR[SO[R,35.5408169151,139.662904232,1,0,0,0,0,0,0,0,0,1
͌Cg[[Jh[X,_ސ쌧͌s揼}PV[P,35.5157209362,139.425041831,0,0,0,0,0,0,0,0,1,1
ۓyJwOX,_ސ쌧lsۓyPJ䒬S,35.4465163778,139.599173937,1,0,0,0,1,0,0,0,0,0
ԓX,_ސ쌧ԎsԂQ[QPW[P,35.4818552819,139.392657033,0,0,1,0,1,0,0,0,1,1
˒ˏX,_ސ쌧ls˒ˋPTTW[V,35.4234741122,139.531165896,1,0,1,0,1,0,0,0,0,1
tX|cVeB[X,_ސ쌧csOPQO,35.281236223,139.193314892,1,0,0,1,0,0,0,0,0,1
˂nrbÓVeBX,_ސ쌧ˎs㊯RR[P,35.3286793506,139.357314658,1,0,0,0,0,0,0,0,0,1
ȓX,_ސ쌧S쒬ȂQ[X[QU,35.3557559134,139.395136775,1,0,1,0,1,0,0,0,1,1
ΐX,_ސ쌧sΐP[PS[PU,35.3796377554,139.450987484,1,0,1,0,1,0,0,0,1,1
l[h|[^[YX,_ސ쌧lsV`Q[Q[P,35.4537691173,139.638956664,1,0,0,0,0,0,0,0,0,1
ROX,_ސ쌧lsRPQ[P,35.4445176864,139.650567435,1,0,0,1,1,0,0,0,0,0
{X,_ސ쌧S{FPRQR,35.3116341772,139.245758972,0,0,1,0,1,0,0,0,0,1
{s[RbNXgAX,_ސ쌧lsh揬PJP[S[V,35.3663349226,139.550284302,1,0,0,0,1,0,0,0,0,0
ʏCg[[Jh[X,_ސ쌧lsʏP[PS[P,35.4156527759,139.594490554,1,0,0,1,0,0,0,0,0,1
PU{srX,_ސ쌧͌s΋搼{P[Q[Q,35.5899662083,139.341745157,1,1,1,0,1,0,0,0,1,1
VHwOX,_ސ쌧ls`kVHPUXONI[VH,35.52829056,139.611153568,1,0,0,0,1,0,0,0,0,0
c}ÓX,_ސ쌧sÓQ[PT,35.3963254647,139.466831039,1,0,0,1,1,0,0,0,0,0
PғX,_ސ쌧s{hQ[QO,35.3409217673,139.438209254,1,1,1,0,1,0,0,0,0,1
ؒJt[hX,_ސ쌧؎sJU[QO,35.4280447555,139.343181692,0,0,0,0,0,0,0,0,0,1
CI{X,_ސ쌧͌s΋拴{U[Q[PCI{XPe,35.5959900565,139.344883263,0,0,0,1,0,0,0,0,0,1
QSUJX,_ސ쌧sË扺쉄S[QS[TU,35.5965415561,139.603084039,1,0,1,0,1,0,0,0,0,1
ݖwOX,_ސ쌧CVsPJRڂP[PT,35.4723653284,139.427671096,0,0,0,0,1,0,0,0,0,0
ߊ}wOX,_ސ쌧{sߊ}hP[VO,35.2573770574,139.662883491,0,0,0,0,1,0,0,0,1,0
ؓΔX,_ސ쌧؎sRTW[P,35.4891660068,139.324856684,0,0,1,0,1,0,0,1,1,1
͂uOaX,_ސ쌧Ԏs͂uU[QT[Q,35.5076558312,139.428768221,0,0,0,0,0,0,0,0,0,1
QTTX,_ސ쌧S䒬ROW[P,35.3203853689,139.158879358,1,0,1,0,1,0,0,0,0,1
qebNhX,_ސ쌧lsqqP[Q[P,35.4140646423,139.626780934,1,0,0,1,0,0,0,0,0,1
r[YX,_ސ쌧s㏬cS[Q[P,35.5812320717,139.641260849,1,0,0,1,1,0,0,0,1,1
VlwOX,_ސ쌧ls`kVlR[U,35.5088329221,139.617724616,1,1,0,1,1,0,0,0,0,0
CwO}VFX,_ސ쌧`sP[P[P,35.3727254748,139.271145264,0,0,0,0,1,0,0,0,0,0
X,_ސ쌧s扺R[QS[T,35.5758725033,139.509240897,0,0,1,0,1,0,0,0,0,1
vlXMqX,_ސ쌧{sMqP[PU[PR,35.2372569392,139.699306756,0,0,1,0,1,0,0,0,1,1
XcX,_ސ쌧ls撆cR[QQ[U,35.4123053249,139.508535758,1,1,1,0,1,0,0,0,0,1
PRT͌X,_ސ쌧S͌glPTVU[SV,35.1449539049,139.113980235,1,0,1,0,1,0,0,0,0,1
vl_CN}X,_ސ쌧{svlV[X,35.2268153617,139.711006177,0,0,0,0,0,0,0,1,0,1
CI蒆X,_ސ쌧sPR[T[PU,35.3358753059,139.403327135,0,0,0,1,0,0,0,0,0,1
˓LcX,_ސ쌧ˎsLcROU,35.3548545402,139.32840026,0,0,1,0,1,0,0,0,0,1
}GcX,_ސ쌧sP[P[RW,35.3504398982,139.407773688,0,0,0,0,0,0,0,0,0,1
{wX,_ސ쌧͌s΋拴{Q[R[Q,35.594283312,139.34516775,0,0,0,0,1,0,0,0,0,0
qwOX,_ސ쌧qsP[U[PXVcr,35.3194646497,139.551156903,1,0,0,1,1,0,0,0,1,0
}GcX,_ސ쌧s扺cP[QW[P,35.5793502804,139.639055278,1,0,0,0,0,0,0,0,0,1
`k}X,_ސ쌧lss}抝P蒆T[P}`kX,35.5441330176,139.572021263,1,0,0,1,0,0,0,0,0,1
o}GcX,_ސ쌧soPO[PT,35.5324846254,139.739995801,1,0,0,0,0,0,0,0,0,1
ˉwX,_ސ쌧ˎs㊯P[S,35.3276273701,139.351436865,0,0,0,0,1,0,0,0,0,0
ncX,_ސ쌧sncR[PW[PQ,35.5179808909,139.705437365,1,1,1,0,1,0,0,0,0,1
_ސwX,_ސ쌧ls_ސZpR[QT[U,35.4844738372,139.622309915,1,0,0,1,1,0,0,0,1,0
S㋽X,_ސ쌧lsh㋽PPPQ[PX,35.3603021462,139.57729586,1,0,1,0,1,0,0,0,0,1
aߊԃCg[[Jh[X,_ސ쌧asߊԂP[R[P,35.4900971684,139.457190108,1,0,0,1,0,0,0,0,0,1
͑˂ȂX,_ސ쌧as㑐PWV[Q,35.4724996053,139.44295118,0,0,0,0,0,0,0,0,0,1
CI[aX,_ސ쌧asߊԂP[Q[P,35.4887862181,139.457697339,1,0,0,1,0,0,0,0,0,1
lxCTCh}[ivUX,_ސ쌧ls攒S[Q,35.3797875793,139.64486131,1,0,0,1,0,0,0,0,0,0
CVVbp[YvUX,_ސ쌧CVsR[Q[T,35.4508703871,139.390861184,0,0,0,1,0,0,0,0,0,1
aOaX,_ސ쌧͌s扺aTXW[P,35.5300005456,139.37642485,0,0,0,1,0,0,0,0,0,1
vnwOX,_ސ쌧sËvnS[PR[Q,35.6107168839,139.591848318,0,0,0,0,1,0,0,0,0,0
쒆ÓX,_ސ쌧bS쒬ÂPVO[P,35.5217318883,139.328803954,0,0,1,0,1,0,0,0,0,1
򕿑X,_ސ쌧sRTO,35.3521629842,139.500723785,1,0,1,0,1,0,0,0,0,1
ˍLX,_ސ쌧ˎsLUT[P,35.3541314327,139.30213391,1,0,1,0,1,0,0,0,0,1
wOX,_ސ쌧lss}撇P[T[P,35.5357985773,139.58919208,0,0,0,0,1,0,0,0,0,0
qRIsbNX,_ސ쌧ls`k哤˒PPS[P,35.5172373695,139.632500528,0,0,0,0,0,0,0,0,0,1
݉wOX,_ސ쌧lsq搼PT[V,35.4157613238,139.634536876,1,0,0,0,1,0,1,0,1,0
CV㋽X,_ސ쌧CVsQ[X[PU,35.4591265623,139.386367352,0,0,1,0,1,0,0,0,1,1
{z[YX,_ސ쌧{sQ[PS[T,35.275391647,139.681678971,0,0,0,1,0,0,0,0,0,1
{X,_ސ쌧sS[U[Q{kEVXPe,35.346764825,139.473778784,1,0,1,0,1,0,0,0,1,1
sOX,_ސ쌧s[JP[P[V,35.4372848291,139.427669977,1,0,1,0,1,0,0,0,0,1
`X,_ސ쌧ls`R[PP[PX,35.3911840242,139.600829037,1,1,1,0,1,0,0,0,0,1
DCg[[Jh[X,_ސ쌧qsDU[P[P,35.3539040674,139.538686608,0,0,0,1,0,0,0,0,0,1
~[UX,_ސ쌧sK{PRPO~[UPST,35.5310777599,139.695281872,1,0,0,0,1,0,0,0,1,0
Cg[[Jh[X,_ސ쌧ls撆cP[P[PT,35.4137402345,139.500695256,0,0,0,1,0,0,0,0,0,1
cwX,_ސ쌧sK掭cP[PV[WdjhrscRe,35.5513802268,139.675416916,1,0,0,0,1,0,0,0,0,0
VRz[YX,_ސ쌧lsVRQ[PQ[RSz[YVRX,35.4403825405,139.658980774,1,0,0,1,0,0,0,0,0,1
剪J~IX,_ސ쌧ls`剪P[PT[PJ~IPe,35.4088780109,139.595617948,1,1,0,1,1,0,0,0,0,0
͑wkX,_ސ쌧͌s摊͑R[PQ[U,35.5316100038,139.436419957,0,0,0,1,1,0,0,0,0,0
\bhXNGAX,_ސ쌧sKx쒬TWO,35.5350154913,139.699732727,1,0,0,0,1,0,0,0,0,0
ÓcAs^X,_ސ쌧ls΋撷Óc݂ȂݑS[V[P,35.518945038,139.499373715,1,0,0,1,0,0,0,0,0,1
͂ЖX,_ސ쌧s͂ЖP[PU[P,35.6191356946,139.467634108,1,0,1,1,1,0,0,1,0,1
SRTj[ACX,_ސ쌧lsѓcSUWT[P,35.4471696431,139.483810928,1,0,1,1,1,0,0,0,1,1
~X^[}bNXX,_ސ쌧sғVS[R[T,35.3401431147,139.4649859,1,0,0,1,0,0,0,0,0,1
lNC[YXNGAX,_ސ쌧ls݂ȂƂ݂炢Q[R[WNC[YXNGAl݂ȂƂ݂炢}X,35.4566275655,139.634447767,1,0,0,1,1,0,0,0,0,1
Cg[[Jh[ہ[ƉlX,_ސ쌧lss}rӒSORT[P,35.5183244065,139.567297411,1,0,0,1,0,0,0,0,0,1
ɐ̐X,_ސ쌧ɐs̐R[Q[U,35.4014524598,139.342865817,1,0,1,1,1,0,0,0,0,1
ÉwOX,_ސ쌧sËaS[P[P,35.6031525562,139.616449584,1,0,0,0,1,0,1,0,0,0
荡hX,_ސ쌧shXRR,35.3336434943,139.377686345,1,0,1,0,1,0,0,0,0,1
{qUԊXX,_ސ쌧ls{qPS[P[Qe,35.4247042024,139.665745266,1,0,0,0,1,0,0,0,0,0
`k݂ȂX,_ސ쌧lss}撆쒆Q[V[P,35.5509073443,139.575371543,0,0,0,1,0,0,0,0,0,1
VcwX,_ސ쌧lsqVcU,35.3865153226,139.61960513,1,0,0,0,1,0,0,0,0,0
`kUCN[X,_ސ쌧lss}撆쒆P[RP[P[Q`kUCN[,35.5549203075,139.578434734,0,0,0,1,0,0,0,0,0,1
c}͌wX,_ސ쌧͌sR[QO[PNAI_TKQe,35.515610604,139.422507884,0,0,0,0,1,0,0,0,1,1
菉RX,_ސ쌧s{O揉RQ[QT[Q,35.5967243447,139.562441654,0,0,1,0,1,0,0,0,0,1
gbTlX,_ސ쌧ls`ktVOOgbTl쓏Pe,35.5242074917,139.645691076,1,0,0,1,0,0,0,0,0,1
tz[YX,_ސ쌧s撆R[QOz[YtXPe,35.537899691,139.734020259,1,0,0,1,0,0,0,0,0,1
lxCNH[^[X,_ސ쌧ls_ސ`P[PO,35.4664004266,139.626611933,1,0,0,1,1,0,0,0,1,1
qwOX,_ސ쌧qsqP[T[Q,35.2966812863,139.579525393,0,0,0,1,1,0,1,0,1,0
h}[NvUX,_ސ쌧ls݂ȂƂ݂炢Q[Qh}[NvUQK,35.4559209135,139.632004113,1,0,0,1,1,0,0,0,0,1
_ސwX,_ސ쌧ls_ސ擌_ސP[QX,35.4780084807,139.633839193,1,0,0,0,1,0,0,0,0,0
}vU˒˓X,_ސ쌧ls˒ˋ˒˒PU[P˒ːrcPOR,35.4008794829,139.533243555,1,1,0,1,1,0,0,0,0,1
QSUɐX,_ސ쌧ɐsc\^POO,35.4050196549,139.314799454,0,1,1,1,1,0,0,0,0,1
܃v[UeXX,_ސ쌧lstuP[P[Q,35.5781857939,139.559349599,1,0,0,1,1,0,0,0,0,0
{AIX,_ސ쌧͌s΋RP[QQ,35.5903038809,139.349729186,0,0,0,1,0,0,0,0,0,1
PTߌX,_ސ쌧lsߌߌT[W[Q,35.5042189184,139.6775575,1,1,1,1,1,0,0,0,0,1
S΂ȑX,_ސ쌧lst悽΂ȑQ[QS[P,35.5584403891,139.512639355,1,0,1,0,1,0,0,0,1,1
CI`VbsOZ^[X,_ސ쌧`sDPQ[P,35.3783365097,139.228692269,0,0,0,1,0,0,0,0,0,1
eX[ÓX,_ސ쌧sғ_P[R[P,35.3386833572,139.446857496,1,0,0,1,1,0,0,0,0,1
wX,_ސ쌧swO{V[V[S,35.5308429003,139.699566518,1,1,0,1,1,0,0,0,0,0
ߊX,_ސ쌧`sߊS[PTQT[P,35.3783986231,139.277827807,0,0,1,1,1,0,0,0,0,1
QSUX,_ސ쌧s{OLnR[P[PO,35.5774184734,139.583783385,1,1,1,1,1,0,0,1,0,1
X,_ސ쌧sS[T[QR,35.4628914819,139.431003963,0,0,1,1,1,0,0,0,1,1
؃C^[X,_ސ쌧؎scROPO,35.4235834388,139.358541116,1,1,1,0,1,0,0,0,0,1
P˒˕˓X,_ސ쌧ls˒ˋ敽˒PQRS[P,35.4244805125,139.567404448,1,1,1,1,1,1,0,0,0,1
aݖX,_ސ쌧asߊԂPVRW[W,35.5017694334,139.455942531,0,0,1,1,1,1,0,0,1,1
ݖK[fYX,_ސ쌧lst꒬VOS[SR,35.5725966386,139.536059301,1,0,1,1,1,1,0,0,0,1
`쐼|X,_ސ쌧`s|W[P,35.3621019747,139.229766422,0,0,1,1,1,0,0,0,1,1
S}ԓX,_ސ쌧qs␣PQTV[P,35.3613130924,139.543780607,1,1,1,1,1,1,0,0,1,1
X,_ސ쌧sKQ[W[PP,35.5486045647,139.659676418,1,1,1,1,1,0,1,1,1,1
CI[ԓX,_ސ쌧ԎsLQ[PO[S,35.5010795304,139.425114903,0,0,0,1,1,0,0,0,0,1
ljAs^eXX,_ސ쌧ls`kjS[R[PV,35.5428158476,139.641647902,0,0,0,1,0,0,0,0,0,1
rX,VVs揗rRP[PT[PX,37.8900781605,139.032568783,1,1,1,0,1,0,0,0,0,1
zX,Vzs΋P[W[QU,37.1615766535,138.23792879,0,1,1,1,1,0,0,1,0,1
CIX,VsÐP[QSX[P,37.4531355688,138.822215958,1,1,1,0,1,0,0,0,0,1
|C^[X,VVs|TWO[P,37.9118141369,139.098976419,1,1,1,0,1,0,0,1,0,1
RtH[X,VVsRQRP,37.8954531837,139.005721469,0,0,1,1,1,0,0,1,1,1
VcX,VVcsVhQ[R[PS,37.9529520617,139.296444994,1,0,1,0,1,0,0,0,0,1
PVZX,V싛s]RRTR[P,37.0780333017,138.883229577,1,1,1,0,1,0,0,0,0,1
fbL[SOPX,VVsߍ]S[PQ[QO,37.8982832439,139.029883381,0,0,0,0,0,0,0,0,0,1
SORVÓX,VVsHtkQOSQ,37.8158978183,139.100513002,0,0,1,0,1,0,0,0,0,1
VX,Vs厚ԒRXQ,38.2173427985,139.48800823,1,0,1,0,1,0,0,0,0,1
WX,VVsPvVQO[P,37.8622518324,139.018264321,1,1,1,0,1,0,0,0,0,1
CI\X,V\s[NVWS,37.1381696088,138.745748793,0,0,0,0,0,0,0,0,0,1
WX,VslV[Q,37.3694728025,138.577773781,1,1,1,0,1,0,0,0,0,1
bvXX,Vs蒬PQVW[Q,37.4577786599,138.873903443,1,0,1,0,1,0,0,0,0,1
CIJX,VJs厚VcrcRRX,37.3192905608,138.794072465,0,0,0,0,0,0,0,0,0,1
SORΓX,VΎsSOOP[P,37.6615094981,139.045963985,0,0,1,0,1,0,0,0,0,1
VAs^X,VVs]LmqS[SUU,37.8715574115,139.088449674,0,0,0,0,0,0,0,0,0,1
PPUgcX,VsgchQPP[U,37.6828460928,138.880315683,0,0,1,0,1,0,0,0,0,1
zcX,Vzsk钬R[T[V,37.118508143,138.252915644,0,0,0,0,1,0,0,0,0,1
TVHiِVX,VVsWPRcST[P,37.88151232,139.076728324,0,0,0,0,0,0,0,0,0,1
{MX,Vs{RQVW,37.422503714,138.848421078,0,0,0,0,0,0,0,1,0,1
vgTX,VsVcVQP[P,37.540239531,138.889175784,0,0,0,1,0,0,0,0,0,1
CI[VcX,VVcsZgT[PP[T,37.9430130262,139.309583447,0,0,0,1,0,0,0,0,0,1
LhxCVAX,VVsk悩ԂƂ܂Q[Q[TQ,37.9289024737,139.220809381,1,0,1,0,1,0,0,0,0,1
SXzX,VVs]扡z㒬T[SXS[P,37.8493867796,139.143273046,1,0,1,0,1,0,0,0,0,1
VwX,VVsQ[V[P,37.9097362197,139.065118938,1,1,1,1,1,0,0,0,0,1
o[TChHX,VsHQڂQVWԒn,37.4611261763,138.827486542,0,0,0,1,0,0,0,0,0,1
CI[VX,VVs]扺ʖcP[P[P,37.8761900218,139.081759226,1,0,0,0,0,0,0,0,0,1
͓nRX,VVs͓nMRUU,37.9331112716,139.104943565,1,1,1,0,1,0,0,0,0,1
PPUVX,VVs䎚VOX[Q,37.8658459935,138.952579676,1,1,1,0,1,0,0,0,0,1
VVcX,VVcscRڂPQWP[P,37.9594961196,139.339751729,1,0,1,0,1,0,0,0,0,1
ܐX,VܐscXRRԒnP,37.7435355908,139.188665093,1,0,1,0,1,0,0,0,0,1
zcX,Vzs厚юcVWX[P,37.1228704172,138.232019525,1,1,1,0,1,0,0,0,0,1
WX,VVs㉺zK؂URW[P,37.7587993453,139.016295133,0,0,1,0,1,0,0,0,0,1
WOX,VOs{PXS[P,37.6402332325,138.940313083,0,1,1,1,1,1,0,0,0,1
VX,VVs斜S[T[X,37.9189349362,139.057361717,1,1,1,1,1,1,0,0,0,1
VTLX,VVsTLUWX,37.8659101082,138.98121576,1,0,1,0,1,0,0,0,0,1
xRC^[X,xRxRs|TSR,36.6629103271,137.21007964,0,1,1,1,1,0,0,1,0,1
X,xRsؒT[QS,36.7617566292,137.012217454,1,1,1,1,1,0,1,1,1,1
ԍ]X,xRxRsԍ]PڌEcQX[P,36.7166613773,137.233494064,1,0,1,1,1,0,0,0,1,1
HX,xRxRsJTVO[P,36.7087247017,137.175434793,0,0,1,0,1,0,0,0,0,1
AvUX,xRːsOPQUOQ,36.7198143936,137.093784923,0,0,0,0,0,0,0,0,0,1
xR쌴X,xRxRs쌴쌴cRVQ[P,36.6748523803,137.246650102,0,0,1,0,1,0,0,0,0,1
WPX,xRVSPRPQPO,36.9404688524,137.515774898,1,0,1,0,1,0,0,0,0,1
xRAs^X,xRxRsyR[W[RW,36.7085958287,137.24074624,1,0,0,0,0,0,0,0,0,1
sKCiVeBX,xRVSsQTV,36.6998363517,137.341013275,0,0,0,0,0,0,0,0,0,1
ܕAXX,xRxRsܕPqPPSR[P,36.695579708,137.192307428,0,0,0,0,0,0,0,0,0,1
xR`ʂX,xRxRszQ[PO[Q,36.6757716924,137.202095952,1,0,1,0,1,0,0,0,0,1
t[`[VeBt@{[X,xRxRswDcPUT[P,36.6627862874,137.170910332,1,0,0,0,0,0,0,0,0,1
pX^X,xRs㏬PQUR,36.7597864871,137.356552862,1,1,1,0,1,0,0,0,0,1
SPrX,xRxRsrQ[PT[RT,36.6964034835,137.245990145,1,1,1,0,1,0,0,0,0,1
CI[X,xRsԍ]RWR,36.7235036747,137.016759385,0,0,0,1,0,0,0,0,0,1
PUOXX,xRXsEVQU[P,36.8399360737,136.986226965,1,0,1,0,1,0,0,0,0,1
SPX,xRxRsvۂPRTX[P,36.5953357572,137.20399755,0,0,1,0,1,0,0,0,1,1
PTUvgX,xRvgsƂȂݒP[PW,36.6373807807,136.958668179,1,0,1,0,1,0,0,0,0,1
哇C[^EOX,xRːs{JVPQ[R,36.7295724347,137.083022993,1,0,1,0,1,0,0,0,0,1
PTUˏoX,xRsˏoɐ̂QSWX[U,36.6892255146,136.976664838,1,0,1,0,1,0,0,0,1,1
WcKX,xRxRscKPOO,36.7338681299,137.206032205,0,0,1,0,1,0,0,0,0,1
WZƓX,xRsZƎOYPVOP[P,36.7384320371,136.976585975,1,0,1,0,1,0,0,0,0,1
]X,xRs\QQRQ,36.7697874526,137.081129636,0,0,1,0,1,0,1,0,1,1
PTOX,xRsO򎚖kXRO[P,36.861272029,137.445197927,1,0,1,0,1,0,0,0,0,1
wX,xRswQ[QOR[P,36.7390542274,137.021919984,1,1,1,0,1,0,0,0,0,1
ÓX,xRÎs؎rcPOPP,36.8213796987,137.41280905,1,0,1,0,1,1,0,0,0,1
ВX,ΐ쌧sВP[R[PW,36.5610566552,136.653509605,0,0,0,1,1,0,0,0,0,0
V_cX,ΐ쌧sV_cS[P[RT,36.5625792411,136.630685464,1,0,1,1,1,0,0,0,0,1
XsX,ΐ쌧Xss{U[QS[PO,36.5332940515,136.609715674,1,1,1,1,1,0,0,1,1,1
򌳒X,ΐ쌧sQ[T[P,36.5794409141,136.664538195,1,0,1,0,1,0,0,0,0,1
WkX,ΐ쌧scPO[W,36.5888455811,136.628176621,1,0,1,0,1,0,0,0,0,1
CAs^X,ΐ쌧RsKQWO,36.5162666062,136.577467803,0,0,0,0,0,0,0,0,0,1
CICX,ΐ쌧RsPOQ,36.5082905656,136.565558889,1,0,0,0,0,0,0,0,0,1
CIX,ΐ쌧sʒAUX,36.4193193639,136.471915601,1,0,0,0,0,0,0,0,0,0
ArIVeBX,ΐ쌧s쌩QT[P,36.3198248448,136.351938913,1,0,0,0,0,0,0,0,0,1
܂ƂԗVٓX,ΐ쌧RsQRXW[P,36.5342435831,136.52856174,1,0,0,0,0,0,0,0,0,1
AvUX,ΐ쌧S\ocƂP[P,36.9703919594,136.906610845,0,0,1,0,1,0,0,0,0,1
CIo˓X,ΐ쌧Xsso˂Q[XP,36.5482092657,136.598454158,1,0,0,1,0,0,0,0,0,1
򃉃p[NX,ΐ쌧sS[PP,36.550839809,136.63237132,1,0,0,0,0,0,0,0,0,1
AvUX,ΐ쌧s]RO[P,36.5910693264,136.643819867,0,0,0,0,0,0,0,0,0,1
򐼃C^[X,ΐ쌧sX˂Q[PVX[P,36.5565780277,136.598804639,1,0,1,0,1,0,0,0,0,1
CI^EHX,ΐ쌧HsΖ쒬C[V,36.8949072414,136.802128128,1,0,1,0,1,0,0,0,0,1
CIX,ΐ쌧svQ[TW,36.6170717091,136.681715774,0,0,0,0,0,0,0,0,0,1
ƌX,ΐ쌧sːQ[WT,36.6021149399,136.619571875,1,0,1,0,1,0,0,0,0,1
CtFA[X,ΐ쌧RsKPXP,36.5181797316,136.578011015,1,0,1,0,1,0,0,0,0,1
CIm̗X,ΐ쌧s̗P[VO,36.5516533728,136.689723417,1,0,0,0,0,0,0,0,0,1
ÔAvUX,ΐ쌧͖kSÔkP[W,36.6599603333,136.725219415,1,0,1,0,1,0,0,0,0,1
cX,ΐ쌧sc{S[QOP,36.5407955308,136.692443871,1,0,1,0,1,0,0,0,0,1
LX,ΐ쌧sLS[PO[PO,36.5393198618,136.636696101,1,0,1,0,1,0,0,1,0,1
X,ΐ쌧͖kS咬߃PuTڂP[RTO,36.6454346168,136.640712769,1,0,1,0,1,0,0,0,0,1
ÓX,ΐ쌧sÒ^PPS,36.3604026161,136.42910636,1,0,1,0,1,0,0,0,0,1
XsVX,ΐ쌧XssVR[U,36.5027381978,136.611898318,1,0,1,0,1,0,0,0,0,1
CI[قX,ΐ쌧قsp^QT,36.7092220864,136.701652934,1,0,0,0,0,0,0,0,0,1
X,ΐ쌧sLVR[T,36.399309946,136.458074813,1,0,1,1,1,0,0,0,0,1
X,ΐ쌧sPROTԊO,36.5640622622,136.580616524,1,0,1,1,1,1,0,0,1,1
WX,䌧sklcUOS,36.0713989208,136.243577815,1,1,1,0,1,0,1,1,1,1
։X,䌧։s|P[PV[PV,35.6463611795,136.061275893,1,0,1,0,1,0,0,0,0,1
VsBX,䌧zOsVQ[PV[Q,35.9061724404,136.153955739,1,1,1,1,1,0,1,1,1,1
ԓX,䌧sԓQ[QV[W,36.0360008764,136.213422077,1,0,1,0,1,0,0,0,0,1
ysX,䌧zOssQW[PS[P,35.9065038914,136.192384269,1,0,1,0,1,0,0,0,0,1
I]AvUX,䌧I]s͒[PUPU[P,35.9692724355,136.189846074,1,0,0,0,0,0,0,0,0,1
As^X,䌧sђ˒PP[PPP,36.0658030974,136.183434467,1,0,0,0,0,0,0,0,0,1
䃏CvUX,䌧sVۖkP[ROR,36.0863190036,136.249166488,1,0,0,0,0,0,0,0,0,1
WۉX,䌧sۉzQ[QOS[P,36.1571528652,136.26416169,1,0,1,0,1,0,0,1,0,1
ᐙX,䌧sᐙS[VPO,36.057386108,136.187348042,1,0,1,0,1,0,0,0,0,1
샔BIX,䌧sL|PV[PV[P,35.9745994732,136.480010207,1,0,1,0,1,0,1,0,1,1
acAs^X,䌧sacQ[PQRO,36.0961390134,136.250444066,1,0,0,0,0,0,0,0,0,1
QVlX,䌧ls~W[VOQ[S,35.482700109,135.776980214,1,0,1,0,1,0,0,0,0,1
I]X,䌧I]sL蒬P[POPO,35.947199377,136.176567229,1,0,1,0,1,0,0,0,0,1
t]X,䌧st]QR[PO[P,36.133896992,136.220984721,1,0,1,0,1,0,0,0,0,1
샏CvUX,䌧sHQ[VPV,36.0397144783,136.230583196,1,0,1,0,1,0,0,1,0,1
։ANXvUX,䌧։sÓcQW[P[P,35.6329305366,136.062841517,1,1,1,0,1,0,0,0,1,1
Vc˓X,䌧s̋{TڂPW[QO,36.0878214458,136.208435045,1,1,1,0,1,0,0,0,1,1
I]_X,䌧I]sKQڂT[QW,35.9775482346,136.181959523,1,0,1,0,1,0,0,0,0,1
OX,䌧sOy~TRcP[P,36.2036283179,136.161494355,1,0,1,0,1,0,0,0,0,1
ΘaX,RJsΘalsPWQT,35.6441732267,138.63357033,0,1,1,0,1,0,0,0,0,1
͌X,Rb{s͌TWS[P,35.6302859591,138.571082077,0,0,1,1,1,0,1,1,1,1
PRXxmgcX,RxmgcsVQ[RR[PW,35.4808330925,138.783851829,1,0,1,0,1,0,0,1,0,1
sX,RsslsST[P,35.5656880811,138.916928519,0,0,1,0,1,0,0,0,1,1
b{X,Rb{s˂R[Q[SS,35.6816549552,138.542526429,0,0,1,0,1,0,0,1,0,1
b{a˓X,Rb{sSUT[Q,35.654546814,138.613677748,1,0,1,0,1,0,0,0,0,1
aʂыX,RSaыPRSR,35.6236118458,138.52240958,1,0,1,0,1,0,0,0,0,1
otCcAX,RbsnSSST[P,35.6858499736,138.49718906,0,0,0,1,0,0,0,0,0,1
cxAs^X,RsRV_PRWR[P,35.6152247392,138.51161139,1,0,0,1,0,0,0,0,0,1
R͓X,RRs͂WQ,35.6859671643,138.668004629,0,0,1,0,1,0,0,0,0,1
b{aCg[[Jh[X,RSaPR[P,35.6399422198,138.543976813,0,0,0,1,0,0,0,0,0,1
X,R싐Sxm쒬垭QWV,35.5651221377,138.470756009,0,0,1,0,1,0,0,0,0,1
BX,RBs䒬쉺QVX,35.7197907621,138.450954505,0,0,1,0,1,0,0,1,0,1
QOX,Rbsx|VcPTOW[T,35.6600907835,138.523011725,0,0,1,0,1,0,0,1,0,1
ΘaAs^X,RJsΘaEPTS,35.6456874514,138.631709042,0,0,0,1,0,0,0,0,0,1
X,Rb{s嗢TOPP,35.6248896393,138.55011909,1,0,1,0,1,0,0,0,0,1
RX,RbBsR]PTVR[P,35.6993890377,138.723752923,0,0,1,0,1,0,0,0,0,1
AvXK[fX,RAvXs\܏VRU[P,35.6191745956,138.469562635,0,0,1,0,1,0,0,0,0,1
b{AvXʂX,Rb{ssP[X[P,35.6536620991,138.54571252,1,1,1,1,1,0,0,0,1,1
PRXxmoCpXX,RxmgcsgcP[QT[PU,35.4806163071,138.810459836,1,0,1,0,1,0,0,0,1,1
b{CX,Rb{sCR[Q[QS,35.6505470395,138.583444394,1,0,1,0,1,0,0,0,1,1
{X,쌧{sP[R[Q,36.2314726803,137.96559189,0,1,0,1,1,0,0,0,0,0
PWX,쌧skRXP[P,36.6553875001,138.237059323,1,1,1,1,1,0,0,1,0,1
zKX,쌧zKSzKԍSURQ[P,36.0663331419,138.080578071,1,0,1,0,1,0,0,1,0,1
zKC^[X,쌧zKs厚lQRSW[P,36.0136558984,138.126645015,1,1,1,0,1,0,0,0,0,1
rabʂX,쌧s㏼P[PU[SO,36.6707578028,138.199513376,1,0,1,0,1,0,0,0,0,1
{{X,쌧{s{U[T,36.2154138366,137.960674616,1,1,1,0,1,0,0,0,0,1
쒆X,쌧s쒆PWPS[P,36.5938057948,138.156321648,1,0,1,0,1,0,0,0,0,1
PXKX,쌧Ks厚LuoPTRX[U,36.1197706059,137.960383944,1,0,1,0,1,0,0,0,0,1
PWX,쌧s厚PPP[T,36.3371384397,138.417174753,0,0,1,0,1,0,0,0,0,1
gCUXX,쌧scPPWX[P,36.6379893955,138.211915559,0,0,0,0,0,0,0,0,0,1
CILȓX,쌧ܖs厚LȂSQVQ[PO,36.3007751998,137.908064742,0,0,0,0,0,0,0,0,0,1
coCpXX,쌧cs厚cnƂPWSO[P,36.4130556574,138.260821717,1,1,1,0,1,0,0,0,0,1
ᗢX,쌧sᗢV[U[R,36.628515418,138.198787923,1,1,1,0,1,0,0,0,0,1
UErbO䍂X,쌧ܖs䍂LPORUW[P,36.3396250142,137.858227569,0,0,0,0,0,0,0,0,0,1
PWcX,쌧scPOQT[P,36.5949156295,138.186717834,1,1,1,0,1,0,0,0,0,1
ܖC^[X,쌧ܖs厚䍂PPPT,36.3010819523,137.923514769,1,1,1,0,1,0,0,0,0,1
vC^[X,쌧vs⑺ckP[PR[U,36.2837882092,138.483031165,1,1,1,0,1,0,0,0,0,1
xVCX,쌧sԕPTUW,35.7418042844,137.927902787,0,1,1,0,1,0,0,0,0,1
CIѓcAbv[hX,쌧ѓcsCFSTU,35.5007302627,137.816863527,0,0,0,1,0,0,0,0,0,1
XAs^X,쌧ɓߌSXRSTPT,35.5727891726,137.899603911,0,0,0,0,0,0,0,0,0,1
IMmX,쌧sˌP[PV[P,36.0004833138,138.151261169,0,0,0,1,0,0,0,0,0,1
CI[vX,쌧vsvwPP[PO,36.2753011834,138.464117035,0,0,0,0,0,0,0,0,0,1
MBX,쌧s厚]PRSR[QS,36.744125281,138.350388584,1,0,1,0,1,0,0,1,0,1
PSV咬X,쌧咬sՎ㋴TWXQ[R,36.4826456447,137.851726095,1,0,1,0,1,0,0,0,0,1
fVAm䓌X,쌧sm㓌VTW[P,36.5747795815,138.15379569,0,0,0,0,0,0,0,0,0,1
PWyX,쌧kvSy򒬑厚y򎚒PQPO[PO,36.3434376522,138.626046359,0,0,1,0,1,0,0,0,0,1
哤X,쌧s哤SQOT,36.6292194072,138.237463956,1,0,1,0,1,0,0,0,0,1
bhsxEQPX,쌧}SR`kKVXVV,36.1874950357,137.893918481,1,0,0,0,0,0,0,0,0,1
{cX,쌧{s厚{⎚PUOT[P,36.6539174593,138.303053612,1,0,0,0,1,0,0,1,0,1
PSRcX,쌧cscSRT[R,36.3900812538,138.214747486,1,0,1,0,1,0,0,0,0,1
CIX,쌧s厚{؍؂QTQ[P,36.7587461359,138.37280325,0,0,0,1,0,0,0,0,0,1
ێqtX|X,쌧csێqPUWQ[PU,36.3368627513,138.272766219,1,0,1,0,1,0,0,0,0,1
RUPɓߓX,쌧ɓߎsSVOR[P,35.838772456,137.973303453,1,1,1,0,1,0,0,0,0,1
PXKLuX,쌧KsLugcPOOX[Q,36.1578904398,137.950658023,1,1,1,0,1,0,0,0,0,1
MX,쌧ȎstPRPԑ,36.5201091011,138.128973665,1,0,1,0,1,0,0,0,0,1
փxVCX,쌧ɓߌS֒OXOX[R,35.8910707709,137.988405955,0,1,1,0,1,0,0,0,0,1
PTRѓc㋽X,쌧ѓcs㋽ʕ{PVPQ[P,35.5128060762,137.848359233,1,1,1,1,1,0,0,1,1,1
{}X,쌧{s}P[QX[Q,36.2208345352,137.979509705,1,1,1,0,1,0,0,0,0,1
V򕌉wOX,򕌌򕌎s_cW[V,35.4126893013,136.759839906,0,0,0,1,1,0,0,0,0,0
򕌌OX,򕌌򕌎scP[P[P,35.3980801449,136.726151996,1,0,1,1,1,0,0,0,0,1
_oCpXX,򕌌_s쒬P[PRQ[P,35.3786972219,136.618003277,1,1,1,1,1,0,0,1,0,1
HX,򕌌򕌎sHRQ[Q[P,35.4567073394,136.850743959,0,0,1,0,1,0,0,1,0,1
_C^[X,򕌌_sQ[QP[P,35.325358626,136.619786995,0,0,1,0,1,0,0,1,1,1
C^[X,򕌌suP[QP[P,35.3459319001,137.110549517,1,1,1,1,1,0,0,1,0,1
QSWX,򕌌sby×ǂTVSR[Q,35.4156102919,137.051484604,1,1,1,0,1,0,0,0,0,1
QPϒX,򕌌sςPVQV[P,35.386776127,136.690771614,1,0,1,1,1,0,0,1,0,1
ǓX,򕌌򕌎sQ[P[R,35.4533355881,136.774891272,0,0,1,0,1,0,0,0,0,1
쒬X,򕌌HS쒬P[P,35.3933707244,136.78476593,1,1,1,0,1,0,0,0,0,1
փ}[SX,򕌌֎sqmTPU,35.4776508841,136.900089432,0,0,0,1,0,0,0,0,0,1
HX,򕌌Hs|@ۂ̓R[T,35.3261282124,136.697795978,0,0,1,0,1,0,0,0,0,1
JlXGX,򕌌KS쒬厚쎚ޗǂTP,35.468431539,136.622761267,1,0,1,0,1,0,0,1,0,1
xaX,򕌌Rs؂PSSU[P,35.504672569,136.788783733,0,0,1,0,1,0,0,0,0,1
Ð샋rbg^EX,򕌌Ðs쒬R[W,35.4982713811,137.507671273,0,0,0,0,0,0,0,0,0,1
PXbߓX,򕌌bߎs쎚TO[T,35.4465270856,137.411497672,1,0,1,0,1,0,0,0,0,1
Z΃o[X,򕌌ZΎsR蒬P[RT[P,35.4522361456,137.018725837,0,0,0,1,0,0,0,0,0,1
PXÐX,򕌌ÐsÐQXSU[QP,35.4843787104,137.504321528,1,0,1,0,1,0,0,0,0,1
CI^EeX,򕌌eshԉQ[P[P,35.4120623556,136.847700025,1,0,1,0,1,0,0,0,0,1
eAs^X,򕌌esLeW[V[P,35.397910092,136.904863604,0,0,0,0,0,0,0,0,0,1
Z΃As^X,򕌌ZΎsQ[T[UT,35.442598573,137.038846103,0,0,0,0,0,0,0,0,0,1
򕌃I[Lbhp[NX,򕌌򕌎sQ[QR,35.4108372006,136.744796289,0,0,0,0,0,0,0,0,0,1
PXQX,򕌌Qs쏬cP[PSP,35.3575180281,137.243305315,0,0,1,0,1,0,0,0,0,1
CI^E_X,򕌌_sO˒OSUR[P,35.3667211169,136.630615662,1,0,0,1,0,0,0,0,1,1
ˍRAs^X,򕌌Rs{QT,36.2056497217,137.222121626,0,0,1,0,1,0,0,0,0,1
CI[_X,򕌌_sOQ[POO,35.3371951632,136.612834676,0,0,0,1,0,0,0,0,0,1
CI[eX,򕌌es߉꒬R[W,35.3922992978,136.823668402,0,0,0,1,0,0,0,0,0,1
_ANAEH[NX,򕌌_sђU[WO[QP,35.3696315848,136.617815844,1,0,0,0,0,0,0,0,0,1
PXyX,򕌌ysS[V,35.3588865007,137.176591069,1,0,1,0,1,0,0,0,0,1
QPLX,򕌌esLP[PPU,35.4029884116,136.939198476,1,0,1,0,1,0,0,0,0,1
򕌃}[TQPX,򕌌򕌎s؂P[Q[P,35.4475507925,136.744902719,0,0,0,0,1,0,0,0,0,1
֑啽X,򕌌֎s啽RڂPPԂU,35.4816604597,136.924024692,0,0,1,0,1,0,0,0,0,1
QSWZΓX,򕌌ZΎscRSX,35.4492493438,137.010703869,1,1,1,0,1,0,0,0,0,1
򕌑X,򕌌򕌎sPQQ]P,35.4465052467,136.740420927,1,0,1,0,1,0,0,0,0,1
QPX,򕌌sjS䒬{㎚ROQP[P,35.3658786436,136.536223959,1,1,1,0,1,0,0,0,1,1
򕌃As^X,򕌌򕌎s[cR[S,35.4027201447,136.747824931,1,1,1,1,1,0,0,0,0,1
_×X,򕌌_s×hPUR,35.3589137357,136.587417504,1,0,1,0,1,0,0,0,0,1
^X,򕌌{scPTWT[Q,35.4292877458,136.648468494,0,0,1,1,1,0,0,0,0,1
X,򕌌snP[PQP,35.4131893898,136.686138559,1,1,1,0,1,0,0,0,1,1
򕌖ÓX,򕌌򕌎sÒ{S[PV,35.3678490679,136.745661112,1,0,1,0,1,0,0,0,1,1
ehX,򕌌eshVhP[P[P,35.4122227412,136.864185523,1,0,1,1,1,0,0,0,0,1
RwX,򕌌RsaP[RQW,36.1419996716,137.249629985,1,1,1,1,1,1,0,0,0,1
QPX,򕌌sbyQRTX[PUR,35.4337420197,137.058854406,1,0,1,1,1,0,0,1,0,1
X,ÉÉs^Q[RS,35.0231365129,138.488253755,0,0,0,1,1,0,1,0,1,0
ÉX,ÉÉsQ[P[PO,34.9746678933,138.382666821,1,0,0,0,1,0,0,0,0,0
X,ÉÉs撷POW,35.0105705293,138.448606505,0,0,1,1,1,0,0,0,1,1
X,ÉOs~RRS[P,35.0913856745,138.928488343,0,0,1,0,1,0,0,0,0,1
QSUaX,ÉasJcJVX[PU,35.3113195154,138.926617286,1,1,1,0,1,0,0,0,1,1
ÉrcX,ÉÉsx͋rcPWU[P,34.9855093428,138.422188314,1,0,1,0,1,0,0,0,1,1
xm{X,Éxm{sXTW,35.2253614511,138.626344018,1,1,1,1,1,0,0,1,0,1
}X,É}sːVPQO[Q,34.8513113368,138.245049011,1,1,1,1,1,0,0,0,0,1
MCwOX,ÉMCsc{W[U,35.1029068637,139.078298771,1,0,0,1,1,0,0,0,0,0
|X,É|sQ[U[R,34.7705003151,138.008134484,0,1,1,1,1,0,0,0,0,1
ޓX,ÉɓsgcPOQU[W,34.9399225209,139.117326407,1,0,1,0,1,0,0,0,0,1
ѓX,ÉÎs㍁юOPRWX,35.086824892,138.867453714,0,0,1,1,1,0,0,1,0,1
mX,Éɓ̍scPTQ[T,35.0114936405,138.94373509,0,1,1,1,1,0,0,0,0,1
QSUX,ÉxS򒬓FRQU[R,35.1592186789,138.898764672,1,0,1,1,1,0,0,0,0,1
ĒÃC^[X,ÉĒÎsS[PQ[SP,34.8803626699,138.30623048,1,1,1,0,1,0,0,0,0,1
YX,ÉqVs׍]QPXS[P,34.7567752492,138.2437565,0,0,1,0,1,0,0,0,1,1
ÉrarʂX,ÉÉsx͋撆QPR[P,34.9524667323,138.391852976,1,1,1,1,1,0,0,0,1,1
܈C^[X,É܈sxzSRR[P,34.7519265492,137.906913558,1,1,1,1,1,0,0,1,0,1
